,Name,Classification,Type,Country,Adress,Latitude,Longitude,location
0,EtonHouse International Pre-School,School,Nursery School,SG,240 Outram Road,1.2848559045544288,103.83517750429917,"{'type': 'Point', 'coordinates': (1.2848559045544288, 103.83517750429917)}"
1,Little Skool House at SGH,School,Nursery School,SG,"Singapore General Hospital, Outram Road, SGH Sisters Quarters",1.277376678246711,103.8357138633728,"{'type': 'Point', 'coordinates': (1.277376678246711, 103.8357138633728)}"
2,PCF Kampong Glam,School,Nursery School,SG,462/463 Crawford Lane #03-33,1.304673214937793,103.86214137221985,"{'type': 'Point', 'coordinates': (1.304673214937793, 103.86214137221985)}"
3,E&P Learning Place,School,Nursery School,SG,"#04-06/07, Delfi Orchard (402 Orchard Rd)",1.3069301881988944,103.82841793714026,"{'type': 'Point', 'coordinates': (1.3069301881988944, 103.82841793714026)}"
4,Wesley Child Development Centre,School,Nursery School,SG,Blk 29 telok blangah rise,1.2748100830307927,103.82133458204608,"{'type': 'Point', 'coordinates': (1.2748100830307927, 103.82133458204608)}"
5,Eton House Pre-School,School,Nursery School,SG,39 Newton Road,1.3172550527969586,103.8414218121627,"{'type': 'Point', 'coordinates': (1.3172550527969586, 103.8414218121627)}"
6,Appleland Playhouse,School,Nursery School,SG,104C Depot Road #01-03,1.2808160363063417,103.81160077331985,"{'type': 'Point', 'coordinates': (1.2808160363063417, 103.81160077331985)}"
7,Cantonment Primary School,School,Elementary School,SG,1 Cantonment Cl,1.2755273909317102,103.83914225219107,"{'type': 'Point', 'coordinates': (1.2755273909317102, 103.83914225219107)}"
8,St. Margaret's Primary School,School,Elementary School,SG,99 Wilkie Road (Upp Wilkie Rd),1.3040839104640924,103.8462321519091,"{'type': 'Point', 'coordinates': (1.3040839104640924, 103.8462321519091)}"
9,Zhangde Primary School,School,Elementary School,SG,51 Jalan Membina (Tiong Barhu Rd),1.284212440805657,103.82682534716076,"{'type': 'Point', 'coordinates': (1.284212440805657, 103.82682534716076)}"
10,Alexandra Primary School,School,Elementary School,SG,2A Prince Charles Cres.,1.2912133999396969,103.82391214370728,"{'type': 'Point', 'coordinates': (1.2912133999396969, 103.82391214370728)}"
11,Radin Mas Primary School,School,Elementary School,SG,1 Bukit Purmei Ave.,1.2747282619017746,103.82397238574971,"{'type': 'Point', 'coordinates': (1.2747282619017746, 103.82397238574971)}"
12,E&P Learning Place,School,Elementary School,SG,"#04-06/07, Delfi Orchard (402 Orchard Rd)",1.3069301881988944,103.82841793714026,"{'type': 'Point', 'coordinates': (1.3069301881988944, 103.82841793714026)}"
13,St. Joseph's Institution Junior,School,Elementary School,SG,3 Essex Rd,1.3170417449629637,103.84547710418701,"{'type': 'Point', 'coordinates': (1.3170417449629637, 103.84547710418701)}"
14,Gan Eng Seng Primary School,School,Elementary School,SG,100 Redhill Cl,1.2857645771414095,103.81518745358852,"{'type': 'Point', 'coordinates': (1.2857645771414095, 103.81518745358852)}"
15,Hong Wen School,School,Elementary School,SG,30 Towner Rd,1.3213981788309523,103.85729464140026,"{'type': 'Point', 'coordinates': (1.3213981788309523, 103.85729464140026)}"
16,Bendemeer Primary School,School,Elementary School,SG,91 Bendemeer Rd.,1.3226727624829213,103.86478563106348,"{'type': 'Point', 'coordinates': (1.3226727624829213, 103.86478563106348)}"
17,Henderson Secondary School,School,Middle School,SG,100 Henderson Rd,1.2852067702689305,103.81983518600464,"{'type': 'Point', 'coordinates': (1.2852067702689305, 103.81983518600464)}"
18,Advocators Education,School,Middle School,SG,Singapore,1.3175745010375977,103.84297180175781,"{'type': 'Point', 'coordinates': (1.3175745010375977, 103.84297180175781)}"
19,Anglo-Chinese School (Barker Road),School,High School,SG,60 Barker Rd,1.3180922876661414,103.83464299564139,"{'type': 'Point', 'coordinates': (1.3180922876661414, 103.83464299564139)}"
20,Music Room @ Qtss,School,Middle School,SG,1 Strathmore Avenue,1.293880856919291,103.81340449897073,"{'type': 'Point', 'coordinates': (1.293880856919291, 103.81340449897073)}"
21,QTSS 3E Classroom,School,Middle School,SG,1 Strathmore Road,1.2928541222539507,103.81291772814406,"{'type': 'Point', 'coordinates': (1.2928541222539507, 103.81291772814406)}"
22,Outram Secondary School,School,High School,SG,3 York Hill (Chin Swee Rd),1.2865552682668648,103.83738295883659,"{'type': 'Point', 'coordinates': (1.2865552682668648, 103.83738295883659)}"
23,Former Nan Chiau High School,School,High School,SG,Kim Yam Road,1.292951029450497,103.83911490440369,"{'type': 'Point', 'coordinates': (1.292951029450497, 103.83911490440369)}"
24,SOTA Assembly Area,School,High School,SG,Singapore,1.298958,103.84859,"{'type': 'Point', 'coordinates': (1.298958, 103.84859)}"
25,High School@OFS,School,High School,SG,25 (Paterson Road),1.3005962304458158,103.83335228835567,"{'type': 'Point', 'coordinates': (1.3005962304458158, 103.83335228835567)}"
26,PSB Academy Block A,School,High School,SG,169199,1.2877039453199148,103.82585741633898,"{'type': 'Point', 'coordinates': (1.2877039453199148, 103.82585741633898)}"
27,Gan Eng Seng School 顏永成學校,School,High School,SG,1 Henderson Rd (Alexandra Rd),1.289883361733737,103.82354736328125,"{'type': 'Point', 'coordinates': (1.289883361733737, 103.82354736328125)}"
28,CHIJ St Theresa's Convent,School,High School,SG,160 Lower Delta Rd. (Telok Blangah Way),1.2761689241999712,103.82290254071415,"{'type': 'Point', 'coordinates': (1.2761689241999712, 103.82290254071415)}"
29,Shelton International College & High School,School,High School,SG,1 Telok Blangah Rise,1.2741409250572735,103.8204078231448,"{'type': 'Point', 'coordinates': (1.2741409250572735, 103.8204078231448)}"
30,Smartlab Private School,School,High School,SG,60 Tessensohn Road,1.315911253483582,103.8562981387021,"{'type': 'Point', 'coordinates': (1.315911253483582, 103.8562981387021)}"
31,Crescent Girls' School,School,High School,SG,357 Tanglin Rd (btw Jervois Rd & Belvedere Close),1.293450566110906,103.81719684331003,"{'type': 'Point', 'coordinates': (1.293450566110906, 103.81719684331003)}"
32,Raffles Girls' School (Secondary),School,High School,SG,20 Anderson Rd,1.3123506190902994,103.82923682568259,"{'type': 'Point', 'coordinates': (1.3123506190902994, 103.82923682568259)}"
33,Raffles Room,School,High School,SG,"Raffles Girls' School (Secondary), 20 Anderson Road",1.312146744713215,103.82885755274245,"{'type': 'Point', 'coordinates': (1.312146744713215, 103.82885755274245)}"
34,Novena Hall International Student's Hostel,School,High School,SG,78 Gilstead Road,1.3186000383056358,103.84211639210832,"{'type': 'Point', 'coordinates': (1.3186000383056358, 103.84211639210832)}"
35,Anglo-Chinese School (Barker Road),School,High School,SG,60 Barker Rd,1.3180922876661414,103.83464299564139,"{'type': 'Point', 'coordinates': (1.3180922876661414, 103.83464299564139)}"
36,Bukit Merah Secondary School,School,High School,SG,10 Lengkok Bahru,1.2859330152967017,103.81352902202181,"{'type': 'Point', 'coordinates': (1.2859330152967017, 103.81352902202181)}"
37,NorthLight School,School,High School,SG,151 Towner Rd,1.3206671308929399,103.85684967041016,"{'type': 'Point', 'coordinates': (1.3206671308929399, 103.85684967041016)}"
38,Art Class @ Bukit Merah Secondary School,School,High School,SG,Lengkok Bahru 10,1.2856090307700514,103.81326865577306,"{'type': 'Point', 'coordinates': (1.2856090307700514, 103.81326865577306)}"
39,ACS(BR): 2 Timothy!,School,High School,SG,60 Barker Road,1.3197637631170032,103.8355034739894,"{'type': 'Point', 'coordinates': (1.3197637631170032, 103.8355034739894)}"
40,Queenstown Secondary School,School,High School,SG,1 Strathmore Rd,1.2934698333694012,103.81300262990626,"{'type': 'Point', 'coordinates': (1.2934698333694012, 103.81300262990626)}"
41,Queenstown Secondary School Indoor Sports Hall,School,High School,SG,1 Strathmore Road,1.293518076907382,103.81340449897073,"{'type': 'Point', 'coordinates': (1.293518076907382, 103.81340449897073)}"
42,School Hall @ Queenstown Secondary School,School,General College & University,SG,1 Strathmore Ave.,1.293618232257355,103.81272528435301,"{'type': 'Point', 'coordinates': (1.293618232257355, 103.81272528435301)}"
43,Balestier Hill Secondary School,School,High School,SG,11 Novena Rise,1.3250020351425553,103.84451051892127,"{'type': 'Point', 'coordinates': (1.3250020351425553, 103.84451051892127)}"
44,Bendemeer Secondary School,School,High School,SG,1 St. Wilfred Road,1.3254145895749398,103.86192289229821,"{'type': 'Point', 'coordinates': (1.3254145895749398, 103.86192289229821)}"
45,Catholic Junior College,School,High School,SG,129 Whitley Rd,1.3252736376504923,103.83482414852415,"{'type': 'Point', 'coordinates': (1.3252736376504923, 103.83482414852415)}"
46,IDEO,Designing Studios,Design Studio,SG,51B Circular Road,1.2857261537335358,103.84940972010517,"{'type': 'Point', 'coordinates': (1.2857261537335358, 103.84940972010517)}"
47,Studio Tinker,Designing Studios,Design Studio,SG,12 Eu Tong Sen St,1.2880618,103.8462276,"{'type': 'Point', 'coordinates': (1.2880618, 103.8462276)}"
48,Black Mongrels,Designing Studios,Design Studio,SG,200 Jalan Sultan #09-10,1.2801440285719214,103.84937167167664,"{'type': 'Point', 'coordinates': (1.2801440285719214, 103.84937167167664)}"
49,Studio.MB,Designing Studios,Design Studio,SG,62A Smith Street,1.28286924028013,103.84320772657368,"{'type': 'Point', 'coordinates': (1.28286924028013, 103.84320772657368)}"
50,TD Fabrics,Designing Studios,Design Studio,SG,1 Magazine Road #B1-01 Central Mall Office Tower (Havelock Road),1.288467513847377,103.84240865707397,"{'type': 'Point', 'coordinates': (1.288467513847377, 103.84240865707397)}"
51,ArtJadens,Designing Studios,Design Studio,SG,195 Pearl's Hill Terrace #02-08,1.2848059600000001,103.84184421999998,"{'type': 'Point', 'coordinates': (1.2848059600000001, 103.84184421999998)}"
52,Lavish Interior Design,Designing Studios,Design Studio,SG,20 Maxwell Rd,1.279779,103.844308,"{'type': 'Point', 'coordinates': (1.279779, 103.844308)}"
53,Garage Interactive,Designing Studios,Design Studio,SG,21 Cavan Road (Lavender Street),1.279090183305683,103.84444445371628,"{'type': 'Point', 'coordinates': (1.279090183305683, 103.84444445371628)}"
54,Carrie Models International Academy,Designing Studios,Design Studio,SG,50 Armenian St.,1.294646893077178,103.85010979393552,"{'type': 'Point', 'coordinates': (1.294646893077178, 103.85010979393552)}"
55,Vanguard Building,Designing Studios,Design Studio,SG,71 - 77 Stamford Road,1.294825225090115,103.84989585167946,"{'type': 'Point', 'coordinates': (1.294825225090115, 103.84989585167946)}"
56,Fjord SG (Accenture),Designing Studios,Design Studio,SG,Raffles City Tower (#31-01),1.294006408451641,103.85290488559309,"{'type': 'Point', 'coordinates': (1.294006408451641, 103.85290488559309)}"
57,Cubevox,Designing Studios,Design Studio,SG,"10 Anson Road,#26-04,International Plaza (10 Anson Road)",1.2753676666379488,103.84607791900633,"{'type': 'Point', 'coordinates': (1.2753676666379488, 103.84607791900633)}"
58,BBC Image,Designing Studios,Design Studio,SG,Bras Basah Complex,1.296345090227229,103.85373897203976,"{'type': 'Point', 'coordinates': (1.296345090227229, 103.85373897203976)}"
59,KIAT.SG,Designing Studios,Design Studio,SG,30A Seah Street,1.296050871734353,103.85475754737854,"{'type': 'Point', 'coordinates': (1.296050871734353, 103.85475754737854)}"
60,XPRINT,Designing Studios,Design Studio,SG,#01-06 Tanjpng Pagar Plaza,1.276179,103.843207,"{'type': 'Point', 'coordinates': (1.276179, 103.843207)}"
61,Mark 12 Architects,Designing Studios,Design Studio,SG,865 Mountbatten Rd,1.275848,103.84597099999996,"{'type': 'Point', 'coordinates': (1.275848, 103.84597099999996)}"
62,PrintStop,Designing Studios,Design Studio,SG,"231, Bain Street, #01-05B, Bras Basah Complex",1.2968714175865144,103.85410845279694,"{'type': 'Point', 'coordinates': (1.2968714175865144, 103.85410845279694)}"
63,Grohe Live Center @ Haw Par Center,Designing Studios,Design Studio,SG,Singapore,1.2973913691213261,103.84385379400152,"{'type': 'Point', 'coordinates': (1.2973913691213261, 103.84385379400152)}"
64,City Box Design,Designing Studios,Design Studio,SG,420 North Bridge Rd,1.2971699,103.85496149999994,"{'type': 'Point', 'coordinates': (1.2971699, 103.85496149999994)}"
65,SUPERMAMA,Designing Studios,Design Studio,SG,#01-04 SAM at 8Q (8 Queen Street),1.297512953648797,103.85176867299808,"{'type': 'Point', 'coordinates': (1.297512953648797, 103.85176867299808)}"
66,Charlotte Ehinger-Schwarz 1876,Designing Studios,Design Studio,SG,2 Bayfront Avenue (The Shoppers @ Marina Bay Sands),1.284831299495051,103.86039177308014,"{'type': 'Point', 'coordinates': (1.284831299495051, 103.86039177308014)}"
67,JamiQ,Technological Startups,Tech Startup,SG,67 South Bridge Road,1.2870264919148537,103.84802226525555,"{'type': 'Point', 'coordinates': (1.2870264919148537, 103.84802226525555)}"
68,SGInnovate,Technological Startups,Tech Startup,SG,32 Carpenter Street,1.2882132447601808,103.84757187775239,"{'type': 'Point', 'coordinates': (1.2882132447601808, 103.84757187775239)}"
69,Amazon Web Services,Technological Startups,Tech Startup,SG,23 Church St. (23 Church Street),1.2839280132980078,103.84899616241455,"{'type': 'Point', 'coordinates': (1.2839280132980078, 103.84899616241455)}"
70,Criteo Singapore,Technological Startups,Tech Startup,SG,138 Market Street #34-01 CapitaGreen,1.2837384304236261,103.84960673796324,"{'type': 'Point', 'coordinates': (1.2837384304236261, 103.84960673796324)}"
71,ThoughtBuzz,Technological Startups,Tech Startup,SG,"Level 9, Malacca Centre (20, Malacca Street)",1.2838429553977835,103.85035890758823,"{'type': 'Point', 'coordinates': (1.2838429553977835, 103.85035890758823)}"
72,MediaMath,Technological Startups,Tech Startup,SG,18 Cross Street #10-01/02,1.2834818897765183,103.84677511196396,"{'type': 'Point', 'coordinates': (1.2834818897765183, 103.84677511196396)}"
73,migme,Technological Startups,Tech Startup,SG,"111 North Bridge Road, Peninsula Plaza, #26-01/02",1.2889758043503323,103.84645661086319,"{'type': 'Point', 'coordinates': (1.2889758043503323, 103.84645661086319)}"
74,iris Digital Singapore,Technological Startups,Tech Startup,SG,"#02-02, Far East Square (19 China St)",1.2836237138095203,103.84791662729316,"{'type': 'Point', 'coordinates': (1.2836237138095203, 103.84791662729316)}"
75,roomorama,Technological Startups,Tech Startup,SG,115 Amoy St,1.2823075936097559,103.84758796699276,"{'type': 'Point', 'coordinates': (1.2823075936097559, 103.84758796699276)}"
76,MyCube,Technological Startups,Tech Startup,SG,3D River Valley Road,1.2896017583521124,103.8453870657327,"{'type': 'Point', 'coordinates': (1.2896017583521124, 103.8453870657327)}"
77,Flok,Technological Startups,Tech Startup,SG,111A Telok Ayer Street (Cross Street),1.2816050046703917,103.84814258257622,"{'type': 'Point', 'coordinates': (1.2816050046703917, 103.84814258257622)}"
78,Sparkline,Technological Startups,Tech Startup,SG,29/31 Tanjong Pagar Road #04-01,1.2821523138303592,103.84597342779803,"{'type': 'Point', 'coordinates': (1.2821523138303592, 103.84597342779803)}"
79,TradeGecko,Technological Startups,Tech Startup,SG,121 Telok Ayer Street,1.2812819497779782,103.84804330055773,"{'type': 'Point', 'coordinates': (1.2812819497779782, 103.84804330055773)}"
80,Pivotal,Technological Startups,Tech Startup,SG,"109 North Bridge Road, Leve 6, WeWork (High Street)",1.291201,103.849976,"{'type': 'Point', 'coordinates': (1.291201, 103.849976)}"
81,Viki Crimson House,Technological Startups,Tech Startup,SG,Singapore,1.2843851367089347,103.85367606298725,"{'type': 'Point', 'coordinates': (1.2843851367089347, 103.85367606298725)}"
82,TubeMogul Singapore,Technological Startups,Tech Startup,SG,75 High Street,1.282581367727275,103.84465334233208,"{'type': 'Point', 'coordinates': (1.282581367727275, 103.84465334233208)}"
83,Grab R&D,Technological Startups,Tech Startup,SG,"#01-01 Cecil Court, 138 Cecil Street (Boon Tat St)",1.2807546416399715,103.84891963696381,"{'type': 'Point', 'coordinates': (1.2807546416399715, 103.84891963696381)}"
84,Home Studio 81 Amoy Street,Technological Startups,Tech Startup,SG,Singapore,1.28056,103.846864,"{'type': 'Point', 'coordinates': (1.28056, 103.846864)}"
85,Airbnb Singapore,Technological Startups,Tech Startup,SG,158 Cecil St,1.2801674005323354,103.84796403842383,"{'type': 'Point', 'coordinates': (1.2801674005323354, 103.84796403842383)}"
86,Omnifluence,Technological Startups,Tech Startup,SG,179B Telok Ayer Street,1.2798758746012273,103.8473117351532,"{'type': 'Point', 'coordinates': (1.2798758746012273, 103.8473117351532)}"
87,Asia Square FCC,Technological Startups,Tech Startup,SG,1 Shenton Lane,1.2801248523883835,103.85164411482286,"{'type': 'Point', 'coordinates': (1.2801248523883835, 103.85164411482286)}"
88,Visa Innovation Centre SG,Technological Startups,Tech Startup,SG,71 Robinson Road,1.2783600994649171,103.8489290775846,"{'type': 'Point', 'coordinates': (1.2783600994649171, 103.8489290775846)}"
89,Spotify Singapore,Technological Startups,Tech Startup,SG,21 Tanjong Pagar Road,1.279705,103.843972,"{'type': 'Point', 'coordinates': (1.279705, 103.843972)}"
90,Groupon H.Q. Singapore,Technological Startups,Tech Startup,SG,UE Square,1.2921385269105374,103.84267419576643,"{'type': 'Point', 'coordinates': (1.2921385269105374, 103.84267419576643)}"
91,Vodafone Customer Experience Center,Technological Startups,Tech Startup,SG,Asia Square Tower 2 (12 Marina View),1.27823601145595,103.85109492786576,"{'type': 'Point', 'coordinates': (1.27823601145595, 103.85109492786576)}"
92,River Valley Building,Technological Startups,Office,SG,179 River Valley Rd,1.2920037002104363,103.84369370691424,"{'type': 'Point', 'coordinates': (1.2920037002104363, 103.84369370691424)}"
93,Traveloka,Technological Startups,Tech Startup,SG,068896,1.277718,103.8483,"{'type': 'Point', 'coordinates': (1.277718, 103.8483)}"
94,Burpple Headquarters,Technological Startups,Tech Startup,SG,34A Duxton Road,1.27903,103.843439,"{'type': 'Point', 'coordinates': (1.27903, 103.843439)}"
95,Palantir Singapore,Technological Startups,Tech Startup,SG,Marina Bay Financial Center Floor 17,1.279297,103.85443,"{'type': 'Point', 'coordinates': (1.279297, 103.85443)}"
96,AppNexus Singapore,Technological Startups,Tech Startup,SG,12 Marina Boulevard (#17-01 MBFC Tower 3),1.2792717474042326,103.85465618995295,"{'type': 'Point', 'coordinates': (1.2792717474042326, 103.85465618995295)}"
97,Grab (Guoco Tower),Technological Startups,Tech Startup,SG,"1 Wallich Street, #35-01",1.2770764898029199,103.84677338891215,"{'type': 'Point', 'coordinates': (1.2770764898029199, 103.84677338891215)}"
98,Unity Singapore Hq,Technological Startups,Tech Startup,SG,guoco tower,1.2770231,103.845856,"{'type': 'Point', 'coordinates': (1.2770231, 103.845856)}"
99,Pivotal Labs Singapore,Technological Startups,Tech Startup,SG,64B Tras St,1.2777016951833406,103.84406078078425,"{'type': 'Point', 'coordinates': (1.2777016951833406, 103.84406078078425)}"
100,YFind Technologies,Technological Startups,Tech Startup,SG,"57B Duxton Road, Singapore 089521",1.2780645974977896,103.84314306818784,"{'type': 'Point', 'coordinates': (1.2780645974977896, 103.84314306818784)}"
101,pepperconn,Technological Startups,Tech Startup,SG,"8 Burn Road, #06-13 (Burn & Playfair Road)",1.29414,103.842529,"{'type': 'Point', 'coordinates': (1.29414, 103.842529)}"
102,Grab (Marina One),Technological Startups,Tech Startup,SG,"#23-07/12, Marina One West Tower (9 Straits View)",1.276867,103.852362,"{'type': 'Point', 'coordinates': (1.276867, 103.852362)}"
103,Foursquare Asia,Technological Startups,Tech Startup,SG,39A Duxton Road,1.2787325314969156,103.8434731966384,"{'type': 'Point', 'coordinates': (1.2787325314969156, 103.8434731966384)}"
104,Zendesk,Technological Startups,Tech Startup,SG,Marina One (Commonwealth Avenue),1.276818,103.852405,"{'type': 'Point', 'coordinates': (1.276818, 103.852405)}"
105,IncuVest Incubator@Mohd Sultan,Technological Startups,Tech Startup,SG,57 Mohd Sultan Road,1.2919484191598218,103.8399871073747,"{'type': 'Point', 'coordinates': (1.2919484191598218, 103.8399871073747)}"
106,Stripe,Technological Startups,Tech Startup,SG,89 Neil Road (Gopeng st),1.27857,103.841669,"{'type': 'Point', 'coordinates': (1.27857, 103.841669)}"
107,Lazada Singapore,Technological Startups,Tech Startup,SG,"8 Shenton Way, #43-01",1.2759280105616952,103.84721671200596,"{'type': 'Point', 'coordinates': (1.2759280105616952, 103.84721671200596)}"
108,Viki Singapore,Technological Startups,Tech Startup,SG,Sultan Link - 59 Mohamed Sultan Road,1.2919222049064945,103.8398564601494,"{'type': 'Point', 'coordinates': (1.2919222049064945, 103.8398564601494)}"
109,Go-Jek Singapore,Technological Startups,Tech Startup,SG,8 Shenton Way,1.2758659604874036,103.8472181274008,"{'type': 'Point', 'coordinates': (1.2758659604874036, 103.8472181274008)}"
110,Neo,Technological Startups,Tech Startup,SG,53A Craig Rd.,1.2775807857452375,103.84231389974804,"{'type': 'Point', 'coordinates': (1.2775807857452375, 103.84231389974804)}"
111,2359 Media Pte Ltd,Technological Startups,Tech Startup,SG,#24-01 Hub Synergy Point (70 Anson Rd),1.277355094486349,103.84353301099164,"{'type': 'Point', 'coordinates': (1.277355094486349, 103.84353301099164)}"
112,App Annie Singapore,Technological Startups,Tech Startup,SG,7 Cantonment Road,1.2792920832846788,103.83984996883703,"{'type': 'Point', 'coordinates': (1.2792920832846788, 103.83984996883703)}"
113,HootSuite Media Singapore,Technological Startups,Tech Startup,SG,1A Keong Saik Rd,1.2787647151498298,103.84148188460017,"{'type': 'Point', 'coordinates': (1.2787647151498298, 103.84148188460017)}"
114,Pure Storage,Technological Startups,Tech Startup,SG,148 (Neil Road),1.2780445964147373,103.84067121408324,"{'type': 'Point', 'coordinates': (1.2780445964147373, 103.84067121408324)}"
115,Kaptr,Technological Startups,Tech Startup,SG,"298 River Valley Road, Level 2",1.295493,103.841561,"{'type': 'Point', 'coordinates': (1.295493, 103.841561)}"
116,Cubevox,Technological Startups,Tech Startup,SG,"10 Anson Road,#26-04,International Plaza (10 Anson Road)",1.2753676666379488,103.84607791900633,"{'type': 'Point', 'coordinates': (1.2753676666379488, 103.84607791900633)}"
117,Headquarters,Leisure Places,Nightclub,SG,66 Boat Quay,1.2877232260225064,103.84938113291551,"{'type': 'Point', 'coordinates': (1.2877232260225064, 103.84938113291551)}"
118,Club V3 - Live On Stage,Leisure Places,Nightclub,SG,South Bridge Road,1.286952813413976,103.84802161856713,"{'type': 'Point', 'coordinates': (1.286952813413976, 103.84802161856713)}"
119,Refuge,Leisure Places,Nightclub,SG,Boat Quay,1.286879425939253,103.84895985625707,"{'type': 'Point', 'coordinates': (1.286879425939253, 103.84895985625707)}"
120,Zouk,Leisure Places,Nightclub,SG,3C River Valley Rd. (The Cannery),1.2909945985318523,103.84594664397288,"{'type': 'Point', 'coordinates': (1.2909945985318523, 103.84594664397288)}"
121,Neverland Clarke Quay,Leisure Places,Nightclub,SG,"Block 3C, River Valley Road, The Cannery #02-04",1.2904178206815144,103.84549293430524,"{'type': 'Point', 'coordinates': (1.2904178206815144, 103.84549293430524)}"
122,Club illusion,Leisure Places,Nightclub,SG,Clarke Quay (Clarke Street),1.2895327212120922,103.84513066810712,"{'type': 'Point', 'coordinates': (1.2895327212120922, 103.84513066810712)}"
123,Kilo,Leisure Places,Nightclub,SG,21 Tanjong Pagar,1.2797117680136298,103.84401919555421,"{'type': 'Point', 'coordinates': (1.2797117680136298, 103.84401919555421)}"
124,Altimate,Leisure Places,Nightclub,SG,#61-00 One Raffles Place (1 Raffles Place),1.284789088880144,103.85114024080943,"{'type': 'Point', 'coordinates': (1.284789088880144, 103.85114024080943)}"
125,Capital,Leisure Places,Nightclub,SG,3C River Valley Road,1.2908973042185423,103.84580460165628,"{'type': 'Point', 'coordinates': (1.2908973042185423, 103.84580460165628)}"
126,Club NaNa,Leisure Places,Nightclub,SG,"#01-02/03, Central Mall (5 Magazine Rd)",1.2888898252141563,103.842913800301,"{'type': 'Point', 'coordinates': (1.2888898252141563, 103.842913800301)}"
127,f.Club Singapore,Leisure Places,Nightclub,SG,"3B River Valley Road, #01-08, Clarke Quay, The Foundry",1.2904753424374888,103.84515657860965,"{'type': 'Point', 'coordinates': (1.2904753424374888, 103.84515657860965)}"
128,Canvas,Leisure Places,Nightclub,SG,"#B1-01/06, The Riverwalk (20 Upp Circular Rd)",1.2892205859951487,103.84890386385922,"{'type': 'Point', 'coordinates': (1.2892205859951487, 103.84890386385922)}"
129,Marquee Singapore,Leisure Places,Nightclub,SG,#B1-67 The Shoppes At Marina Bay Sands (2 Bayfront Avenue),1.28570017252535,103.85967135429382,"{'type': 'Point', 'coordinates': (1.28570017252535, 103.85967135429382)}"
130,chateaux,Leisure Places,Nightclub,SG,Singapore,1.28675232483545,103.84884158605549,"{'type': 'Point', 'coordinates': (1.28675232483545, 103.84884158605549)}"
131,Lunar,Leisure Places,Nightclub,SG,"#01-03 The Cannery (3 River Valley Road, Clarke Quay)",1.29044786608593,103.84547486503189,"{'type': 'Point', 'coordinates': (1.29044786608593, 103.84547486503189)}"
132,Le Noir,Leisure Places,Nightclub,SG,3C River Valley Road (Clarke Quay),1.289881971213239,103.84629886349114,"{'type': 'Point', 'coordinates': (1.289881971213239, 103.84629886349114)}"
133,Bar Rouge,Leisure Places,Nightclub,SG,Swisshotel,1.2933846648336045,103.85345114124449,"{'type': 'Point', 'coordinates': (1.2933846648336045, 103.85345114124449)}"
134,Attica,Leisure Places,Nightclub,SG,"3A River Valley Rd, #01-03 (Clarke Quay)",1.2901375017462422,103.84536344745956,"{'type': 'Point', 'coordinates': (1.2901375017462422, 103.84536344745956)}"
135,the lounge,Leisure Places,Nightclub,SG,29 carpenter street,1.2883272137717088,103.84726625210256,"{'type': 'Point', 'coordinates': (1.2883272137717088, 103.84726625210256)}"
136,Skyline club & lounge,Leisure Places,Nightclub,SG,Level 45 Singapore Land Tower 50 Raffles Place,1.2841653207709947,103.85164977655562,"{'type': 'Point', 'coordinates': (1.2841653207709947, 103.85164977655562)}"
137,Lunar Yue,Leisure Places,Nightclub,SG,Clarke Quay,1.2901875813183508,103.84599948459577,"{'type': 'Point', 'coordinates': (1.2901875813183508, 103.84599948459577)}"
138,Lulu's Lounge,Leisure Places,Nightclub,SG,7 Raffles Boulevard,1.2920458422350056,103.85926525398467,"{'type': 'Point', 'coordinates': (1.2920458422350056, 103.85926525398467)}"
139,Club Filter - Vanity/Suite 26,Leisure Places,Nightclub,SG,South Beach (36 Beach Road),1.2958767359654082,103.85612767986474,"{'type': 'Point', 'coordinates': (1.2958767359654082, 103.85612767986474)}"
140,Azzucar @ Clarke Quay,Leisure Places,Nightclub,SG,Singapore,1.2902737217980538,103.84580133232872,"{'type': 'Point', 'coordinates': (1.2902737217980538, 103.84580133232872)}"
141,Fleek,Leisure Places,Nightclub,SG,Singapore,1.29023275044641,103.84563124431232,"{'type': 'Point', 'coordinates': (1.29023275044641, 103.84563124431232)}"
142,Rumours,Leisure Places,Nightclub,SG,049018,1.287843187145294,103.8439330537371,"{'type': 'Point', 'coordinates': (1.287843187145294, 103.8439330537371)}"
143,Lunar Asian Fusion Bar,Leisure Places,Nightclub,SG,Singapore,1.290389,103.845476,"{'type': 'Point', 'coordinates': (1.290389, 103.845476)}"
144,Royal 2,Leisure Places,Nightclub,SG,Singapore,1.2845428077225813,103.84374093511849,"{'type': 'Point', 'coordinates': (1.2845428077225813, 103.84374093511849)}"
145,DV8 Club,Leisure Places,Nightclub,SG,"Block 3C, River Valley Road, The Cannery #02-04",1.29046633535824,103.84550946068343,"{'type': 'Point', 'coordinates': (1.29046633535824, 103.84550946068343)}"
146,COCO,Leisure Places,Nightclub,SG,"Blk 3C #02-03, The Cannery, Clarke Quay (River Valley Rd)",1.2904546706032147,103.84546757343124,"{'type': 'Point', 'coordinates': (1.2904546706032147, 103.84546757343124)}"
147,Titanium,Leisure Places,Nightclub,SG,#01-13F Esplanade Mall (8 Raffles Ave),1.2895399659093183,103.85665089117266,"{'type': 'Point', 'coordinates': (1.2895399659093183, 103.85665089117266)}"
148,Taboo Café & Bar,Leisure Places,Nightclub,SG,65 Neil Rd.,1.278037,103.843212,"{'type': 'Point', 'coordinates': (1.278037, 103.843212)}"
149,Phuture,Leisure Places,Nightclub,SG,3C River Valley Road,1.290793,103.845862,"{'type': 'Point', 'coordinates': (1.290793, 103.845862)}"
150,VICE LIFE,Leisure Places,Nightclub,SG,"Canning Lane, 3C River Valley Road (Clarke Quay)",1.2909719317699748,103.84585222928848,"{'type': 'Point', 'coordinates': (1.2909719317699748, 103.84585222928848)}"
151,Rupee room singapore,Leisure Places,Nightclub,SG,Clarke Quay,1.2910047900184856,103.8456680696818,"{'type': 'Point', 'coordinates': (1.2910047900184856, 103.8456680696818)}"
152,SEVEN1NCH @ The Foundry Clarke Quay,Leisure Places,Nightclub,SG,3b River Valley Road 01-16,1.2911689966474416,103.84573905596163,"{'type': 'Point', 'coordinates': (1.2911689966474416, 103.84573905596163)}"
153,Club Nexus,Leisure Places,Nightclub,SG,#03-06 Oriental Plaza (291 New Bridge Road),1.2818021002213045,103.84170260015067,"{'type': 'Point', 'coordinates': (1.2818021002213045, 103.84170260015067)}"
154,Trace,Leisure Places,Nightclub,SG,5 Magazine Road #01-03,1.2887437803707837,103.84301495239866,"{'type': 'Point', 'coordinates': (1.2887437803707837, 103.84301495239866)}"
155,Secret Club,Leisure Places,Nightclub,SG,"5 Magazine Road, #01-03",1.288988,103.843082,"{'type': 'Point', 'coordinates': (1.288988, 103.843082)}"
156,Bah Bar,Leisure Places,Nightclub,SG,Central Mall (1 Magazine Road),1.2889482114943107,103.842997306564,"{'type': 'Point', 'coordinates': (1.2889482114943107, 103.842997306564)}"
157,Club Villa,Leisure Places,Nightclub,SG,Singapore,1.288828352570885,103.8428996933281,"{'type': 'Point', 'coordinates': (1.288828352570885, 103.8428996933281)}"
158,One Fantasy,Leisure Places,Nightclub,SG,Singapore,1.2891047632127706,103.8428447865724,"{'type': 'Point', 'coordinates': (1.2891047632127706, 103.8428447865724)}"
159,Social House,Leisure Places,Nightclub,SG,Singapore,1.291125891187492,103.8441821560644,"{'type': 'Point', 'coordinates': (1.291125891187492, 103.8441821560644)}"
160,Shanghai Dolly Smoking Room,Leisure Places,Nightclub,SG,3B River Valley Road #01-01 The Foundry,1.2919577607667785,103.84500872615116,"{'type': 'Point', 'coordinates': (1.2919577607667785, 103.84500872615116)}"
161,Club Versace,Leisure Places,Nightclub,SG,execelsior hotel,1.293061214796591,103.84999656060793,"{'type': 'Point', 'coordinates': (1.293061214796591, 103.84999656060793)}"
162,Rumours Exclusive,Leisure Places,Nightclub,SG,Singapore,1.291616388339767,103.84410181743723,"{'type': 'Point', 'coordinates': (1.291616388339767, 103.84410181743723)}"
163,Club Royce,Leisure Places,Nightclub,SG,32 tras street,1.2806948204512971,103.84442559741665,"{'type': 'Point', 'coordinates': (1.2806948204512971, 103.84442559741665)}"
164,EZ50,Leisure Places,Nightclub,SG,1 Neil Rd #01-01,1.280280940822248,103.84401231351896,"{'type': 'Point', 'coordinates': (1.280280940822248, 103.84401231351896)}"
165,Baliza,Leisure Places,Nightclub,SG,6 Raffles Boulevard,1.2922615087981175,103.85607825374447,"{'type': 'Point', 'coordinates': (1.2922615087981175, 103.85607825374447)}"
166,Hi-So,Leisure Places,Nightclub,SG,35 Robinson Road,1.288491370263715,103.84427008734565,"{'type': 'Point', 'coordinates': (1.288491370263715, 103.84427008734565)}"
167,Club Bubbery,Leisure Places,Nightclub,SG,Keong Saik Road,1.2816939579728277,103.84203314781189,"{'type': 'Point', 'coordinates': (1.2816939579728277, 103.84203314781189)}"
168,INFINITY LIVE @ Oriental Plaza,Leisure Places,Nightclub,SG,Singapore,1.2819888693699686,103.84173078258593,"{'type': 'Point', 'coordinates': (1.2819888693699686, 103.84173078258593)}"
169,Bar CoCoon,Leisure Places,Nightclub,SG,"The Forbidden City by IndoChine (3A Merchant’s Court, River Valley Road, #01-02)",1.2900382163230113,103.8448155291216,"{'type': 'Point', 'coordinates': (1.2900382163230113, 103.8448155291216)}"
170,Barcode Live Entertainment,Leisure Places,Nightclub,SG,Singapore,1.28178332527501,103.8416549284263,"{'type': 'Point', 'coordinates': (1.28178332527501, 103.8416549284263)}"
171,Burberry Thai Disco,Leisure Places,Nightclub,SG,Singapore,1.2816800088254463,103.84164246605447,"{'type': 'Point', 'coordinates': (1.2816800088254463, 103.84164246605447)}"
172,Society Bar,Leisure Places,Nightclub,SG,"#01-11, One Fullerton (1 Fullerton Rd)",1.2865613739908717,103.85438741850588,"{'type': 'Point', 'coordinates': (1.2865613739908717, 103.85438741850588)}"
173,QUEENS The Club,Leisure Places,Nightclub,SG,ESPLANADE,1.2896000532469438,103.85662152728102,"{'type': 'Point', 'coordinates': (1.2896000532469438, 103.85662152728102)}"
174,Chinoiserie,Leisure Places,Nightclub,SG,"#01-13F, Esplanade Mall (8 Raffles Ave)",1.2896364596763867,103.85664068312774,"{'type': 'Point', 'coordinates': (1.2896364596763867, 103.85664068312774)}"
175,Club Hexa,Leisure Places,Nightclub,SG,51 Tanjong Pagar Road,1.2786532117849752,103.84396955954773,"{'type': 'Point', 'coordinates': (1.2786532117849752, 103.84396955954773)}"
176,Refuge,Leisure Places,Nightclub,SG,Singapore,1.293439,103.854276,"{'type': 'Point', 'coordinates': (1.293439, 103.854276)}"
177,Grand Century Nite Club,Leisure Places,Nightclub,SG,Pearl's Centre (Eu Tong Sen Street),1.281674,103.840738,"{'type': 'Point', 'coordinates': (1.281674, 103.840738)}"
178,Club RCA,Leisure Places,Nightclub,SG,Singapore,1.2814667625203484,103.84061550722319,"{'type': 'Point', 'coordinates': (1.2814667625203484, 103.84061550722319)}"
179,Mango One Thai Disco,Leisure Places,Nightclub,SG,Singapore,1.291933430669653,103.85620754791458,"{'type': 'Point', 'coordinates': (1.291933430669653, 103.85620754791458)}"
180,ANTT,Leisure Places,Nightclub,SG,CHIJMES,1.2951047547853605,103.8521027159405,"{'type': 'Point', 'coordinates': (1.2951047547853605, 103.8521027159405)}"
181,Bang Bang,Leisure Places,Nightclub,SG,"7 Raffles Boulevard, Marina Square, Singapore 039595",1.2919135215293371,103.859230999814,"{'type': 'Point', 'coordinates': (1.2919135215293371, 103.859230999814)}"
182,Lush Live Band,Leisure Places,Nightclub,SG,"#01-16, Marina Mandarin Hotel (6 Raffles Blvd.)",1.292265445726939,103.85717048259586,"{'type': 'Point', 'coordinates': (1.292265445726939, 103.85717048259586)}"
183,Supper Club,Leisure Places,Nightclub,SG,Odeon Towers,1.2970589628099225,103.85422588942087,"{'type': 'Point', 'coordinates': (1.2970589628099225, 103.85422588942087)}"
184,Grand Hollywood Disco & Pub,Leisure Places,Nightclub,SG,"Merchants' Court, #03-02 (3A Clarke Quay)",1.2896196542282727,103.8451871024073,"{'type': 'Point', 'coordinates': (1.2896196542282727, 103.8451871024073)}"
185,Fash,Leisure Places,Nightclub,SG,The Butter Factory (1 Fullerton Road),1.2866250231604135,103.85403338699206,"{'type': 'Point', 'coordinates': (1.2866250231604135, 103.85403338699206)}"
186,World Music,Leisure Places,Nightclub,SG,Middle Rd,1.2969765730556875,103.85595842354161,"{'type': 'Point', 'coordinates': (1.2969765730556875, 103.85595842354161)}"
187,PONG Singapore,Leisure Places,Nightclub,SG,3B River Valley Road #01-17 The Foundry,1.291254755268967,103.84579537150012,"{'type': 'Point', 'coordinates': (1.291254755268967, 103.84579537150012)}"
188,S Club,Leisure Places,Nightclub,SG,11 Purvis St,1.2965261250962679,103.85524454375388,"{'type': 'Point', 'coordinates': (1.2965261250962679, 103.85524454375388)}"
189,The SMU Shop,Leisure Places,Gift Shop,SG,Singapore,1.2964253900583211,103.84988898903413,"{'type': 'Point', 'coordinates': (1.2964253900583211, 103.84988898903413)}"
190,Blu Jaz Cafe,Leisure Places,Jazz Club,SG,11 Bali Ln.,1.3004641573891866,103.85888869337293,"{'type': 'Point', 'coordinates': (1.3004641573891866, 103.85888869337293)}"
191,Club V3 - Live On Stage,Leisure Places,Pub,SG,South Bridge Road,1.286952813413976,103.84802161856713,"{'type': 'Point', 'coordinates': (1.286952813413976, 103.84802161856713)}"
192,Molly Malone's Irish Pub,Leisure Places,Pub,SG,56 Circular Road (Boat Quay),1.2858951708149167,103.84932032800445,"{'type': 'Point', 'coordinates': (1.2858951708149167, 103.84932032800445)}"
193,The Penny Black Public House,Leisure Places,Pub,SG,26/27 Boat Quay (Upper Circular Rd),1.2859668307394778,103.85009141345964,"{'type': 'Point', 'coordinates': (1.2859668307394778, 103.85009141345964)}"
194,London Boat Quay,Leisure Places,Pub,SG,55 Boat Quay,1.2872628099875865,103.84963366227564,"{'type': 'Point', 'coordinates': (1.2872628099875865, 103.84963366227564)}"
195,SOS,Leisure Places,Pub,SG,2 Marina Boulevard,1.279995674897267,103.85292497900159,"{'type': 'Point', 'coordinates': (1.279995674897267, 103.85292497900159)}"
196,Crazy Elephant,Leisure Places,Pub,SG,Clarke Quay (3E River Valley Rd),1.290335,103.846687,"{'type': 'Point', 'coordinates': (1.290335, 103.846687)}"
197,Harry's,Leisure Places,Pub,SG,28 Circular Rd (Boat Quay),1.2860944545028554,103.85008563750566,"{'type': 'Point', 'coordinates': (1.2860944545028554, 103.85008563750566)}"
198,RedDot BrewHouse,Leisure Places,Pub,SG,33/34 Boat Quay,1.2863002879696293,103.8498691984193,"{'type': 'Point', 'coordinates': (1.2863002879696293, 103.8498691984193)}"
199,Alchemy,Leisure Places,Pub,SG,#01-02 Central Mall (3 Magazine Road),1.2886975783470815,103.84270411880135,"{'type': 'Point', 'coordinates': (1.2886975783470815, 103.84270411880135)}"
200,Check In,Leisure Places,Pub,SG,24 Pagoda St.,1.2826916712864382,103.84549737567626,"{'type': 'Point', 'coordinates': (1.2826916712864382, 103.84549737567626)}"
201,Jab1,Leisure Places,Pub,SG,1 Circular Road,1.2882824882131556,103.84855896234512,"{'type': 'Point', 'coordinates': (1.2882824882131556, 103.84855896234512)}"
202,Oxwell & Co.,Leisure Places,Pub,SG,5 Ann Siang Road (Club Street),1.2814253198091532,103.84554788868095,"{'type': 'Point', 'coordinates': (1.2814253198091532, 103.84554788868095)}"
203,Lluvia Bar,Leisure Places,Pub,SG,145 Telok Ayer St,1.2808603871631696,103.84767214412238,"{'type': 'Point', 'coordinates': (1.2808603871631696, 103.84767214412238)}"
204,Brewerkz Restaurant & Microbrewery,Leisure Places,Brewery,SG,"#01-05/06, Riverside Point (30 Merchant Road)",1.289527,103.844098,"{'type': 'Point', 'coordinates': (1.289527, 103.844098)}"
205,Raffles Place Bistro,Leisure Places,Pub,SG,"#01-01, The Sail (2 Marina Blvd)",1.2819790318158573,103.85292933420777,"{'type': 'Point', 'coordinates': (1.2819790318158573, 103.85292933420777)}"
206,Highlander Bar & Restaurant,Leisure Places,Bar,SG,3B River Valley Road #01-11 Clarke Quay (Clarke Quay),1.290441925522098,103.84549245885033,"{'type': 'Point', 'coordinates': (1.290441925522098, 103.84549245885033)}"
207,Uncabunca,Leisure Places,Pub,SG,48 Circular Rd (Boat Quay),1.2918361,103.840576,"{'type': 'Point', 'coordinates': (1.2918361, 103.840576)}"
208,Harry's,Leisure Places,Pub,SG,#01-03 Marina Bay Link Mall (8A Marina Boulevard),1.2802035561766771,103.85449963110545,"{'type': 'Point', 'coordinates': (1.2802035561766771, 103.85449963110545)}"
209,Archipelago,Leisure Places,Pub,SG,210 South Bridge (at Mosque St),1.2832974179357084,103.84575929416835,"{'type': 'Point', 'coordinates': (1.2832974179357084, 103.84575929416835)}"
210,30a Boat Quay X-bar,Leisure Places,Pub,SG,Singapore,1.2868192434880876,103.84886753513757,"{'type': 'Point', 'coordinates': (1.2868192434880876, 103.84886753513757)}"
211,Toxic Bar,Leisure Places,Pub,SG,22a Circular Square,1.2869030991129426,103.84873072139713,"{'type': 'Point', 'coordinates': (1.2869030991129426, 103.84873072139713)}"
212,Drinking Place,Leisure Places,Pub,SG,Singapore,1.286424613109909,103.8498212109266,"{'type': 'Point', 'coordinates': (1.286424613109909, 103.8498212109266)}"
213,De Luxy,Leisure Places,Pub,SG,77 south bridge road,1.2867359360686474,103.84792561868326,"{'type': 'Point', 'coordinates': (1.2867359360686474, 103.84792561868326)}"
214,Liquid @ Boat Quay,Leisure Places,Pub,SG,Singapore,1.2863164579402884,103.84920224142012,"{'type': 'Point', 'coordinates': (1.2863164579402884, 103.84920224142012)}"
215,Audition pub,Leisure Places,Pub,SG,76 Circular Road,1.286643776723571,103.84896614166247,"{'type': 'Point', 'coordinates': (1.286643776723571, 103.84896614166247)}"
216,Liquid Empire Executive,Leisure Places,Pub,SG,53B South Bridge Road (Boat Quay),1.2872824015287094,103.84825947022463,"{'type': 'Point', 'coordinates': (1.2872824015287094, 103.84825947022463)}"
217,Toxic Lab,Leisure Places,Pub,SG,51 South Bridge Rd,1.2872532101190008,103.84821649708333,"{'type': 'Point', 'coordinates': (1.2872532101190008, 103.84821649708333)}"
218,Toxic Room,Leisure Places,Pub,SG,53 South Bridge Road,1.2872639611382535,103.84820667994951,"{'type': 'Point', 'coordinates': (1.2872639611382535, 103.84820667994951)}"
219,十三妹(13 Sisters) @ Hongkong Street,Leisure Places,Pub,SG,Singapore,1.287523280786343,103.84739096200204,"{'type': 'Point', 'coordinates': (1.287523280786343, 103.84739096200204)}"
220,十三妹,Leisure Places,Pub,SG,Hong Kong Street,1.2875098370199975,103.84739222012506,"{'type': 'Point', 'coordinates': (1.2875098370199975, 103.84739222012506)}"
221,Club Samurai,Leisure Places,Pub,SG,Singapore,1.2868211971715273,103.84891518710381,"{'type': 'Point', 'coordinates': (1.2868211971715273, 103.84891518710381)}"
222,Martin Entertainment,Leisure Places,Pub,SG,27A Circular rd,1.2868734788365983,103.8488659310156,"{'type': 'Point', 'coordinates': (1.2868734788365983, 103.8488659310156)}"
223,Shebang Pub,Leisure Places,Pub,SG,82 Circular Road,1.287242162131326,103.84881490570413,"{'type': 'Point', 'coordinates': (1.287242162131326, 103.84881490570413)}"
224,Liquid 40,Leisure Places,Pub,SG,Circular Rd,1.2863806510712903,103.84884158605549,"{'type': 'Point', 'coordinates': (1.2863806510712903, 103.84884158605549)}"
225,Union Pub @ Circular Rd,Leisure Places,Pub,SG,Singapore,1.287089,103.848843,"{'type': 'Point', 'coordinates': (1.287089, 103.848843)}"
226,Shin Bar,Leisure Places,Pub,SG,Boat Quay,1.287221,103.848126,"{'type': 'Point', 'coordinates': (1.287221, 103.848126)}"
227,Bar 57,Leisure Places,Pub,SG,57B Boat Quay,1.287086899216739,103.84977575589052,"{'type': 'Point', 'coordinates': (1.287086899216739, 103.84977575589052)}"
228,McGettigan's CQ #McGettigansCQ,Leisure Places,Pub,SG,#01-01 Block C/D Clarke Quay (3A River Valley Rd),1.290547621793041,103.84480880485545,"{'type': 'Point', 'coordinates': (1.290547621793041, 103.84480880485545)}"
229,Paulaner Bräuhaus,Leisure Places,Pub,SG,"#01-01, Millenia Walk (9 Raffles Blvd)",1.2931391449273943,103.85829478901404,"{'type': 'Point', 'coordinates': (1.2931391449273943, 103.85829478901404)}"
230,Club Strawberry,Leisure Places,Pub,SG,74 Circular Road #01-01,1.2867080580327046,103.84900971708235,"{'type': 'Point', 'coordinates': (1.2867080580327046, 103.84900971708235)}"
231,Marquee Bistro & Bar,Leisure Places,Pub,SG,21 Church Street,1.2840818916739962,103.84827542564442,"{'type': 'Point', 'coordinates': (1.2840818916739962, 103.84827542564442)}"
232,Harry's,Leisure Places,Pub,SG,"#01-14, Chijmes (30 Victoria St)",1.2948134,103.85263,"{'type': 'Point', 'coordinates': (1.2948134, 103.85263)}"
233,Purple Turtle Ktv Pool,Leisure Places,Pub,SG,36A Boat Quay,1.2863562287188328,103.84973154247136,"{'type': 'Point', 'coordinates': (1.2863562287188328, 103.84973154247136)}"
234,Upper Circular Road,Leisure Places,Pub,SG,Upper Circular Road,1.288667,103.848319,"{'type': 'Point', 'coordinates': (1.288667, 103.848319)}"
235,Purple Bar,Leisure Places,Pub,SG,Boat Quay,1.2886174554902496,103.8493449990094,"{'type': 'Point', 'coordinates': (1.2886174554902496, 103.8493449990094)}"
236,Aurora Boat Quay,Leisure Places,Pub,SG,Singapore,1.288638,103.849351,"{'type': 'Point', 'coordinates': (1.288638, 103.849351)}"
237,Hannibal European Grill & Pizza Bar,Leisure Places,Pub,SG,#01-04 The Pier @ Robertson Walk (80 Mohamed Sultan Rd.),1.2917292673766851,103.84109185539076,"{'type': 'Point', 'coordinates': (1.2917292673766851, 103.84109185539076)}"
238,The Chamber,Leisure Places,Pub,SG,Far East Square,1.2839579857890173,103.84817286299169,"{'type': 'Point', 'coordinates': (1.2839579857890173, 103.84817286299169)}"
239,Skinny's Lounge,Leisure Places,Dive Bar,SG,82 Boat Quay,1.288604829804924,103.8493614428837,"{'type': 'Point', 'coordinates': (1.288604829804924, 103.8493614428837)}"
240,Grand Hollywood Disco & Pub,Leisure Places,Pub,SG,"Merchants' Court, #03-02 (3A Clarke Quay)",1.2896196542282727,103.8451871024073,"{'type': 'Point', 'coordinates': (1.2896196542282727, 103.8451871024073)}"
241,Post Bar,Leisure Places,Hotel Bar,SG,"The Fullerton Hotel, Lobby (1 Fullerton Square)",1.2859992947823395,103.85317841914382,"{'type': 'Point', 'coordinates': (1.2859992947823395, 103.85317841914382)}"
242,China One VIP Area,Leisure Places,Pub,SG,3E River Valley Rd #02-01/02/03 (Clarke Quay),1.2898086601902152,103.84655997400196,"{'type': 'Point', 'coordinates': (1.2898086601902152, 103.84655997400196)}"
243,Dixies Pub,Leisure Places,Pub,SG,Singapore,1.2834452568492527,103.84543210529793,"{'type': 'Point', 'coordinates': (1.2834452568492527, 103.84543210529793)}"
244,TalayThai,Leisure Places,Pub,SG,Singapore,1.2901014,103.8466329,"{'type': 'Point', 'coordinates': (1.2901014, 103.8466329)}"
245,O+ Victoria,Leisure Places,Pub,SG,32 Mosque St,1.2834948266632253,103.84528546711016,"{'type': 'Point', 'coordinates': (1.2834948266632253, 103.84528546711016)}"
246,Forest2,Leisure Places,Pub,SG,"#01-05, Shenton House (3 Shenton Way)",1.2784099735402221,103.84965367469607,"{'type': 'Point', 'coordinates': (1.2784099735402221, 103.84965367469607)}"
247,Harry's @ Market St,Leisure Places,Pub,SG,Market St,1.2817700712809472,103.84974178596583,"{'type': 'Point', 'coordinates': (1.2817700712809472, 103.84974178596583)}"
248,The Blarney Irish Pub,Leisure Places,Pub,SG,The Sail @ Marina Bay (6 Marina Blvd),1.2802162296852295,103.85306521714362,"{'type': 'Point', 'coordinates': (1.2802162296852295, 103.85306521714362)}"
249,Roku,Leisure Places,Pub,SG,146 Market Street,1.2816230617794375,103.85016641063467,"{'type': 'Point', 'coordinates': (1.2816230617794375, 103.85016641063467)}"
250,Molly Roffey's Irish Pub,Leisure Places,Pub,SG,#01-01/03 Int'l Factors Building (141 Market St.),1.2819100267581625,103.84988970963227,"{'type': 'Point', 'coordinates': (1.2819100267581625, 103.84988970963227)}"
251,The Good Beer Company,Leisure Places,Beer Bar,SG,#02-58 Chinatown Complex Food Centre (335 Smith St),1.282490736602177,103.84384751339886,"{'type': 'Point', 'coordinates': (1.282490736602177, 103.84384751339886)}"
252,Boat Quay,Leisure Places,Canal,SG,Boat Quay,1.2866377657473904,103.8495492898863,"{'type': 'Point', 'coordinates': (1.2866377657473904, 103.8495492898863)}"
253,Boomarang Bistro & Bar,Leisure Places,Australian Restaurant,SG,52 Circular Road,1.2856579384319702,103.84950445769702,"{'type': 'Point', 'coordinates': (1.2856579384319702, 103.84950445769702)}"
254,99 Degrees Pub And Ktv,Leisure Places,Pub,SG,Singapore,1.28856466,103.84357,"{'type': 'Point', 'coordinates': (1.28856466, 103.84357)}"
255,99 Degree Pub,Leisure Places,Pub,SG,Central Mall,1.2886277076849717,103.84358204668783,"{'type': 'Point', 'coordinates': (1.2886277076849717, 103.84358204668783)}"
256,Illuzion,Leisure Places,Pub,SG,45 neil road,1.279656,103.842852,"{'type': 'Point', 'coordinates': (1.279656, 103.842852)}"
257,Le Noir,Leisure Places,Lounge,SG,3C River Valley Road (Clarke Quay),1.289881971213239,103.84629886349114,"{'type': 'Point', 'coordinates': (1.289881971213239, 103.84629886349114)}"
258,Harry's,Leisure Places,Pub,SG,"#01-05/07, Esplanade Mall (8 Raffles Ave)",1.28941442202027,103.85613001186913,"{'type': 'Point', 'coordinates': (1.28941442202027, 103.85613001186913)}"
259,Orgo Bar & Lab,Leisure Places,Pub,SG,"#04-01, Roof Terrace, Esplanade Theatres on the Bay (1 Esplanade Dr)",1.289606492245779,103.85612470507638,"{'type': 'Point', 'coordinates': (1.289606492245779, 103.85612470507638)}"
260,New Harbour Cafe & Bar,Leisure Places,Pub,SG,114 Tanjong Pagar Road,1.2778405205280887,103.84364948182709,"{'type': 'Point', 'coordinates': (1.2778405205280887, 103.84364948182709)}"
261,Back Bencher Cafe & Bar,Leisure Places,Pub,SG,Singapore,1.280998125583318,103.84576170190999,"{'type': 'Point', 'coordinates': (1.280998125583318, 103.84576170190999)}"
262,CU29,Leisure Places,Pub,SG,29 Ann Siang Hill,1.2807867336932157,103.84585228574122,"{'type': 'Point', 'coordinates': (1.2807867336932157, 103.84585228574122)}"
263,My Awesome Cafe 真棒堂 (My Awesome Café),Leisure Places,Café,SG,202 Telok Ayer Street,1.28009,103.847253,"{'type': 'Point', 'coordinates': (1.28009, 103.847253)}"
264,Singapore Sling Boutique Clarke Quay,Leisure Places,Pub,SG,Singapore,1.2905673155300954,103.8448921582914,"{'type': 'Point', 'coordinates': (1.2905673155300954, 103.8448921582914)}"
265,Club Axchange,Leisure Places,Pub,SG,16 Tanjong Pagar Road,1.279924747114008,103.84406892767717,"{'type': 'Point', 'coordinates': (1.279924747114008, 103.84406892767717)}"
266,kanpai @ Robertson Walk,Leisure Places,Pub,SG,Robertson Walk,1.2917468417279545,103.84115950665601,"{'type': 'Point', 'coordinates': (1.2917468417279545, 103.84115950665601)}"
267,Urban Fairways,Leisure Places,Sports Bar,SG,"Capital Tower, 168 Robinson Road",1.277309118227904,103.84773185611138,"{'type': 'Point', 'coordinates': (1.277309118227904, 103.84773185611138)}"
268,Glamor @ Tanjong Pagar,Leisure Places,Pub,SG,52 Tanjong Pagar Road,1.279189,103.843864,"{'type': 'Point', 'coordinates': (1.279189, 103.843864)}"
269,Dorothy's Bar,Leisure Places,Gay Bar,SG,13A Trengganu St,1.2828981278053893,103.84418508879271,"{'type': 'Point', 'coordinates': (1.2828981278053893, 103.84418508879271)}"
270,Rain D Boutique Bar,Leisure Places,Pub,SG,81 Clemenceau Avenue (UE Square Shopping Mall),1.2918811526399516,103.84261061020128,"{'type': 'Point', 'coordinates': (1.2918811526399516, 103.84261061020128)}"
271,American Taproom,Leisure Places,Beer Bar,SG,"261 Waterloo Street, #01-23",1.298166106887847,103.85223035160051,"{'type': 'Point', 'coordinates': (1.298166106887847, 103.85223035160051)}"
272,The Tavern Pub & Restaurant,Leisure Places,Pub,SG,229 River Valley Road,1.2939069347073766,103.84232708140948,"{'type': 'Point', 'coordinates': (1.2939069347073766, 103.84232708140948)}"
273,Bonkers 56,Leisure Places,Pub,SG,56 tanjong pagar road,1.2791147096943922,103.84395003797218,"{'type': 'Point', 'coordinates': (1.2791147096943922, 103.84395003797218)}"
274,Molly Roffey's Irish Pub,Leisure Places,Pub,SG,#01-13E Esplanade Mall (8 Raffles Ave.),1.2891117092544637,103.85657798654665,"{'type': 'Point', 'coordinates': (1.2891117092544637, 103.85657798654665)}"
275,Guess Where 2,Leisure Places,Pub,SG,#01-43 Keong Saik Rd,1.280569656412748,103.84180437975954,"{'type': 'Point', 'coordinates': (1.280569656412748, 103.84180437975954)}"
276,Tantric Bar,Leisure Places,Gay Bar,SG,78 Neil Rd,1.279814,103.842389,"{'type': 'Point', 'coordinates': (1.279814, 103.842389)}"
277,Flying Hog Cafe and Bar,Leisure Places,Pub,SG,32 Duxton Road (at Duxton Hill),1.2791126675114435,103.84317426592143,"{'type': 'Point', 'coordinates': (1.2791126675114435, 103.84317426592143)}"
278,ebar,Leisure Places,Pub,SG,57 Neil Rd,1.2796115357795486,103.84240748888107,"{'type': 'Point', 'coordinates': (1.2796115357795486, 103.84240748888107)}"
279,Chatroom @ Keong Siak Rd,Leisure Places,Pub,SG,Singapore,1.279734,103.841573,"{'type': 'Point', 'coordinates': (1.279734, 103.841573)}"
280,In Barz,Leisure Places,Pub,SG,82 Neil Road,1.2796078895377394,103.84232522243616,"{'type': 'Point', 'coordinates': (1.2796078895377394, 103.84232522243616)}"
281,D's Bar,Leisure Places,Pub,SG,Singapore,1.2804043117125683,103.84156786252143,"{'type': 'Point', 'coordinates': (1.2804043117125683, 103.84156786252143)}"
282,5footway.inn Project Boat Quay,Leisure Places,Hostel,SG,"76, Boat Quay",1.2881736678118256,103.84933597972048,"{'type': 'Point', 'coordinates': (1.2881736678118256, 103.84933597972048)}"
283,Beds@mohamad Sultan,Leisure Places,Pub,SG,Singapore,1.293675242605203,103.84198440995897,"{'type': 'Point', 'coordinates': (1.293675242605203, 103.84198440995897)}"
284,Crystabelle,Leisure Places,Pub,SG,3 Teo Hong Road,1.28048861641134,103.84054776068622,"{'type': 'Point', 'coordinates': (1.28048861641134, 103.84054776068622)}"
285,Paulaner Singapore Clarke Quay,Leisure Places,German Restaurant,SG,#01-12 Clarke Quay (3B River Valley Rd.),1.2907565129749183,103.8456179558429,"{'type': 'Point', 'coordinates': (1.2907565129749183, 103.8456179558429)}"
286,Duxton Blue,Leisure Places,Pub,SG,35 Duxton Rd,1.2779235318305207,103.84311215157445,"{'type': 'Point', 'coordinates': (1.2779235318305207, 103.84311215157445)}"
287,Barossa,Leisure Places,Bar,SG,#01-01 Esplanade Mall (8 Raffles Avenue),1.2893531427644938,103.85604970208067,"{'type': 'Point', 'coordinates': (1.2893531427644938, 103.85604970208067)}"
288,Customs House,Leisure Places,Gourmet Shop,SG,70 Collyer Quay (Marina Bay),1.2824132,103.85366,"{'type': 'Point', 'coordinates': (1.2824132, 103.85366)}"
289,Pan Pacific Singapore,Leisure Places,Hotel,SG,7 Raffles Blvd. (Marina Square),1.2919535380366518,103.85925680588429,"{'type': 'Point', 'coordinates': (1.2919535380366518, 103.85925680588429)}"
290,Azzucar @ Clarke Quay,Leisure Places,Nightclub,SG,Singapore,1.2902737217980538,103.84580133232872,"{'type': 'Point', 'coordinates': (1.2902737217980538, 103.84580133232872)}"
291,Molly Malone's Irish Pub,Leisure Places,Bar,SG,56 Circular Road (Boat Quay),1.2858951708149167,103.84932032800445,"{'type': 'Point', 'coordinates': (1.2858951708149167, 103.84932032800445)}"
292,The Penny Black Public House,Leisure Places,Bar,SG,26/27 Boat Quay (Upper Circular Rd),1.2859668307394778,103.85009141345964,"{'type': 'Point', 'coordinates': (1.2859668307394778, 103.85009141345964)}"
293,McGettigan's CQ #McGettigansCQ,Leisure Places,Pub,SG,#01-01 Block C/D Clarke Quay (3A River Valley Rd),1.290547621793041,103.84480880485545,"{'type': 'Point', 'coordinates': (1.290547621793041, 103.84480880485545)}"
294,Sticky fingers,Leisure Places,Irish Pub,SG,The riverside plaza (11 Keng Cheow St),1.2888747302302075,103.84388749720257,"{'type': 'Point', 'coordinates': (1.2888747302302075, 103.84388749720257)}"
295,Muddy Murphy's Irish Pub,Leisure Places,Irish Pub,SG,"#01-02 to 05, Claymore Connect (442 Orchard Road)",1.3073454206232478,103.82884740829468,"{'type': 'Point', 'coordinates': (1.3073454206232478, 103.82884740829468)}"
296,The Drunken Poet,Leisure Places,Irish Pub,SG,Orchard Towers (Orchard Road),1.3065485877957104,103.82898767108125,"{'type': 'Point', 'coordinates': (1.3065485877957104, 103.82898767108125)}"
297,Raffles Place MRT Interchange (EW14/NS26),Travelling Stations,Metro Station,SG,5 Raffles Pl.,1.2842710026825765,103.85120816210832,"{'type': 'Point', 'coordinates': (1.2842710026825765, 103.85120816210832)}"
298,Telok Ayer MRT Station (DT18),Travelling Stations,Metro Station,SG,7 Cross Street,1.282401201578115,103.84875613369451,"{'type': 'Point', 'coordinates': (1.282401201578115, 103.84875613369451)}"
299,Clarke Quay MRT Station (NE5),Travelling Stations,Metro Station,SG,10 Eu Tong Sen St.,1.2889035745208484,103.84715443499002,"{'type': 'Point', 'coordinates': (1.2889035745208484, 103.84715443499002)}"
300,Chinatown MRT Interchange (NE4/DT19),Travelling Stations,Metro Station,SG,151 New Bridge Rd.,1.2849629351960765,103.84423877029343,"{'type': 'Point', 'coordinates': (1.2849629351960765, 103.84423877029343)}"
301,Fort Canning MRT Station (DT20),Travelling Stations,Metro Station,SG,170 River Valley Road,1.2923712682404866,103.84427172788108,"{'type': 'Point', 'coordinates': (1.2923712682404866, 103.84427172788108)}"
302,Downtown MRT Station (DT17),Travelling Stations,Metro Station,SG,15 Central Boulevard,1.2795443561772941,103.85282783854863,"{'type': 'Point', 'coordinates': (1.2795443561772941, 103.85282783854863)}"
303,C937 River Valley Station,Travelling Stations,Metro Station,SG,Singapore,1.2932017287195041,103.84439729026025,"{'type': 'Point', 'coordinates': (1.2932017287195041, 103.84439729026025)}"
304,City Hall MRT Interchange (EW13/NS25),Travelling Stations,Metro Station,SG,150 N Bridge Rd.,1.293146497376342,103.85305310355484,"{'type': 'Point', 'coordinates': (1.293146497376342, 103.85305310355484)}"
305,Esplanade MRT Station (CC3),Travelling Stations,Metro Station,SG,90 Bras Basah Rd.,1.2929069745655162,103.85594590121967,"{'type': 'Point', 'coordinates': (1.2929069745655162, 103.85594590121967)}"
306,Bayfront MRT Interchange (CE1/DT16),Travelling Stations,Metro Station,SG,12A Bayfront Ave,1.2830615419593563,103.85916709899902,"{'type': 'Point', 'coordinates': (1.2830615419593563, 103.85916709899902)}"
307,Tanjong Pagar MRT Station (EW15),Travelling Stations,Metro Station,SG,120 Maxwell Rd.,1.2767867658570566,103.8453201065979,"{'type': 'Point', 'coordinates': (1.2767867658570566, 103.8453201065979)}"
308,Outram Park MRT Interchange (EW16/NE3),Travelling Stations,Metro Station,SG,10 Outram Rd.,1.2802339988347582,103.83954553084332,"{'type': 'Point', 'coordinates': (1.2802339988347582, 103.83954553084332)}"
309,Bras Basah MRT Station (CC2),Travelling Stations,Metro Station,SG,65 Bras Basah Rd.,1.2975056249952983,103.8505061113249,"{'type': 'Point', 'coordinates': (1.2975056249952983, 103.8505061113249)}"
310,Marina Bay MRT Interchange (NS27/CE2),Travelling Stations,Metro Station,SG,21 Marina Station Rd.,1.2761439599526458,103.854787674371,"{'type': 'Point', 'coordinates': (1.2761439599526458, 103.854787674371)}"
311,HarbourFront 6,Travelling Stations,Light Rail Station,SG,Singapore,1.279825,103.839092,"{'type': 'Point', 'coordinates': (1.279825, 103.839092)}"
312,トルーパーのノースイーストライン,Travelling Stations,Light Rail Station,SG,Japan North East Line,1.31155,103.850498,"{'type': 'Point', 'coordinates': (1.31155, 103.850498)}"
313,小印度,Travelling Stations,Light Rail Station,SG,Singapore,1.312293,103.855093,"{'type': 'Point', 'coordinates': (1.312293, 103.855093)}"
314,VivoCity Station,Travelling Stations,Light Rail Station,SG,"VivoCity, Lobby L, Level 3 (1 HarbourFront Walk)",1.265073189693106,103.82261299037599,"{'type': 'Point', 'coordinates': (1.265073189693106, 103.82261299037599)}"
315,Sentosa Express,Travelling Stations,Light Rail Station,SG,Around Sentosa,1.2650925635412393,103.82229120448892,"{'type': 'Point', 'coordinates': (1.2650925635412393, 103.82229120448892)}"
316,HarbourFront 6,Travelling Stations,Light Rail Station,SG,Singapore,1.279825,103.839092,"{'type': 'Point', 'coordinates': (1.279825, 103.839092)}"
317,トルーパーのノースイーストライン,Travelling Stations,Light Rail Station,SG,Japan North East Line,1.31155,103.850498,"{'type': 'Point', 'coordinates': (1.31155, 103.850498)}"
318,小印度,Travelling Stations,Light Rail Station,SG,Singapore,1.312293,103.855093,"{'type': 'Point', 'coordinates': (1.312293, 103.855093)}"
319,VivoCity Station,Travelling Stations,Light Rail Station,SG,"VivoCity, Lobby L, Level 3 (1 HarbourFront Walk)",1.265073189693106,103.82261299037599,"{'type': 'Point', 'coordinates': (1.265073189693106, 103.82261299037599)}"
320,Sentosa Express,Travelling Stations,Light Rail Station,SG,Around Sentosa,1.2650925635412393,103.82229120448892,"{'type': 'Point', 'coordinates': (1.2650925635412393, 103.82229120448892)}"
321,Esplanade Park,Parks,Park,SG,Connaught Dr. (Opp Padang & City Hall),1.2889675708353954,103.85358044117562,"{'type': 'Point', 'coordinates': (1.2889675708353954, 103.85358044117562)}"
322,Hong Lim Park,Parks,Park,SG,New Bridge Rd. (Upper Pickering St.),1.2866816363786384,103.84645806666519,"{'type': 'Point', 'coordinates': (1.2866816363786384, 103.84645806666519)}"
323,Fort Canning Park,Parks,Park,SG,Cox Terrace (Canning Rise),1.2950747972372088,103.84642124176025,"{'type': 'Point', 'coordinates': (1.2950747972372088, 103.84642124176025)}"
324,The Merlion,Parks,Outdoor Sculpture,SG,Merlion Park (1 Fullerton Rd),1.286906421390687,103.85435611180665,"{'type': 'Point', 'coordinates': (1.286906421390687, 103.85435611180665)}"
325,Telok Ayer Park,Parks,Park,SG,Singapore,1.2801500581533445,103.84585389541125,"{'type': 'Point', 'coordinates': (1.2801500581533445, 103.84585389541125)}"
326,Ann Siang Hill Park,Parks,Park,SG,Singapore,1.2806267056484886,103.8464105129242,"{'type': 'Point', 'coordinates': (1.2806267056484886, 103.8464105129242)}"
327,The Civilian War Memorial,Parks,Park,SG,Nicoll Highway (btw Bras Basah Rd & Stamford Rd),1.292752,103.85477,"{'type': 'Point', 'coordinates': (1.292752, 103.85477)}"
328,Ann Siang Hill,Parks,Other Great Outdoors,SG,Ann Siang Road (Ann Siang Road),1.2815049423709581,103.84549022833018,"{'type': 'Point', 'coordinates': (1.2815049423709581, 103.84549022833018)}"
329,One Fullerton,Parks,Plaza,SG,1 Fullerton Rd.,1.2857966380343786,103.85418059470722,"{'type': 'Point', 'coordinates': (1.2857966380343786, 103.85418059470722)}"
330,Raffles Place Open Space Park,Parks,Park,SG,Raffles Pl.,1.2841341563392057,103.85146379470825,"{'type': 'Point', 'coordinates': (1.2841341563392057, 103.85146379470825)}"
331,Duxton Plain Park,Parks,Park,SG,Yan Kit Rd,1.277827177340126,103.84172201156616,"{'type': 'Point', 'coordinates': (1.277827177340126, 103.84172201156616)}"
332,Speaker's Corner,Parks,Park,SG,Hong Lim Park (20 Upper Pickering St.),1.2865602249654815,103.84641277454006,"{'type': 'Point', 'coordinates': (1.2865602249654815, 103.84641277454006)}"
333,Sands SkyPark,Parks,Roof Deck,SG,1 Bayfront Ave. (Marina Bay Sands),1.284642637495982,103.86088735211888,"{'type': 'Point', 'coordinates': (1.284642637495982, 103.86088735211888)}"
334,Youth Olympic Park,Parks,Park,SG,Raffles Avenue,1.2889392152054389,103.86025012800003,"{'type': 'Point', 'coordinates': (1.2889392152054389, 103.86025012800003)}"
335,Prudential Tower Garden,Parks,Park,SG,Singapore,1.2827376802108117,103.84932848589554,"{'type': 'Point', 'coordinates': (1.2827376802108117, 103.84932848589554)}"
336,21st Floor Sky Garden,Parks,Park,SG,Straits Trading Building,1.285424,103.852443,"{'type': 'Point', 'coordinates': (1.285424, 103.852443)}"
337,Telok Ayer Green,Parks,Park,SG,Amoy St. (Boon Tat St.),1.2814409205498796,103.84756612844966,"{'type': 'Point', 'coordinates': (1.2814409205498796, 103.84756612844966)}"
338,Fort Canning Lighthouse @ Fort Canning Hill,Parks,Lighthouse,SG,Fort Canning Hill,1.2917840356166008,103.84787793974996,"{'type': 'Point', 'coordinates': (1.2917840356166008, 103.84787793974996)}"
339,Singapore's Colonial History Walking Trail | Fort Canning Park,Parks,Park,SG,Fort Canning Park,1.2958049264371232,103.84730729680737,"{'type': 'Point', 'coordinates': (1.2958049264371232, 103.84730729680737)}"
340,Central Fire Station,Parks,Fire Station,SG,62 Hill St.,1.292384572291404,103.84950782668285,"{'type': 'Point', 'coordinates': (1.292384572291404, 103.84950782668285)}"
341,Pearl's Hill City Park,Parks,Park,SG,Pearl's Hill Terrace,1.2842414177524333,103.83983373641968,"{'type': 'Point', 'coordinates': (1.2842414177524333, 103.83983373641968)}"
342,Parliament House,Parks,Government Building,SG,1 Parliament Pl,1.289881355705951,103.85010413226689,"{'type': 'Point', 'coordinates': (1.289881355705951, 103.85010413226689)}"
343,The Foothills,Parks,Park,SG,Fort Canning Park (70 River Valley Road),1.2919588797004429,103.84586033106027,"{'type': 'Point', 'coordinates': (1.2919588797004429, 103.84586033106027)}"
344,Tanjong Pagar Ricoh Park,Parks,Park,SG,Maxwell Road,1.2794760512137504,103.84659515633203,"{'type': 'Point', 'coordinates': (1.2794760512137504, 103.84659515633203)}"
345,Fort Canning Green,Parks,Park,SG,Fort Canning Park (Cox Terrace),1.2956550642927085,103.84748565989155,"{'type': 'Point', 'coordinates': (1.2956550642927085, 103.84748565989155)}"
346,NS Square (The Float @ Marina Bay),Parks,Event Space,SG,20 Raffles Ave,1.2881671823763388,103.85899543762207,"{'type': 'Point', 'coordinates': (1.2881671823763388, 103.85899543762207)}"
347,Jubilee Park,Parks,Playground,SG,Fort Canning Park (Clemenceau Avenue / River Valley Road),1.292984,103.845224,"{'type': 'Point', 'coordinates': (1.292984, 103.845224)}"
348,Marina Bay Sands Boardwalk,Parks,Waterfront,SG,10 Bayfront Avenue,1.284048347205377,103.85849118232727,"{'type': 'Point', 'coordinates': (1.284048347205377, 103.85849118232727)}"
349,War Memorial Park,Parks,Park,SG,Nicoll Highway (Btw Bras Basah Rd & Stamford Rd),1.2928437684040126,103.85474681854248,"{'type': 'Point', 'coordinates': (1.2928437684040126, 103.85474681854248)}"
350,Smoking Point At Sky Terrace,Parks,Park,SG,Twenty Anso (20 Anson),1.2774926564687237,103.84590263871891,"{'type': 'Point', 'coordinates': (1.2774926564687237, 103.84590263871891)}"
351,Trees of the Fort,Parks,Trail,SG,Cox Terrace (Fort Canning Park),1.2951425962529903,103.8480376389752,"{'type': 'Point', 'coordinates': (1.2951425962529903, 103.8480376389752)}"
352,Stamford Green,Parks,Park,SG,Stamford Road (Fort Canning Park),1.2957934455298497,103.8485562801361,"{'type': 'Point', 'coordinates': (1.2957934455298497, 103.8485562801361)}"
353,Tanjong Pagar Park,Parks,Park,SG,Singapore,1.276641,103.846735,"{'type': 'Point', 'coordinates': (1.276641, 103.846735)}"
354,Tras Link Park,Parks,Park,SG,078867,1.2764468,103.843704,"{'type': 'Point', 'coordinates': (1.2764468, 103.843704)}"
355,Bras Basah Park,Parks,Park,SG,9 Bras Basah Rd (opposite the Art Museum),1.2981691888318039,103.84918743740552,"{'type': 'Point', 'coordinates': (1.2981691888318039, 103.84918743740552)}"
356,PororoPark Singapore,Parks,Theme Park,SG,"6 Raffles Boulevard, Marina Square (#02-29)",1.2906324935849494,103.85731850879205,"{'type': 'Point', 'coordinates': (1.2906324935849494, 103.85731850879205)}"
357,Church of Saints Peter and Paul,Parks,Church,SG,225A Queen St.,1.2977517542721104,103.85155435068292,"{'type': 'Point', 'coordinates': (1.2977517542721104, 103.85155435068292)}"
358,Boon Tat Street,Parks,Road,SG,Boon Tat St.,1.281458194654407,103.84811123956645,"{'type': 'Point', 'coordinates': (1.281458194654407, 103.84811123956645)}"
359,Lim Bo Seng Memorial,Parks,Monument / Landmark,SG,Off Connaught Drive,1.2884956865157946,103.85307058096991,"{'type': 'Point', 'coordinates': (1.2884956865157946, 103.85307058096991)}"
360,Tan Kim Seng Fountain,Parks,Monument / Landmark,SG,Connaught Drive,1.291162442591032,103.85420270286477,"{'type': 'Point', 'coordinates': (1.291162442591032, 103.85420270286477)}"
361,Chinatown,Parks,Neighborhood,SG,Singapore,1.2826333470327669,103.84402929776394,"{'type': 'Point', 'coordinates': (1.2826333470327669, 103.84402929776394)}"
362,Fort Canning Gate,Parks,Historic Site,SG,Fort Canning Park,1.294918,103.846028,"{'type': 'Point', 'coordinates': (1.294918, 103.846028)}"
363,Keong Saik Road,Parks,Road,SG,Keong Saik Rd.,1.2794253758673424,103.8414216041565,"{'type': 'Point', 'coordinates': (1.2794253758673424, 103.8414216041565)}"
364,Old Married Soldier's Quarters,Parks,Historic Site,SG,Fort Canning Park,1.2949194917774292,103.84617499113084,"{'type': 'Point', 'coordinates': (1.2949194917774292, 103.84617499113084)}"
365,Bukit Pasoh Road,Parks,Road,SG,Bukit Pasoh Rd,1.2793647673566424,103.84064038704123,"{'type': 'Point', 'coordinates': (1.2793647673566424, 103.84064038704123)}"
