,Name,Classification,Type,Country,Adress,Latitude,Longitude,location
0,Headquarters,Leisure Places,Nightclub,SG,66 Boat Quay,1.2877232260225064,103.84938113291551,"{'type': 'Point', 'coordinates': (1.2877232260225064, 103.84938113291551)}"
1,Club V3 - Live On Stage,Leisure Places,Nightclub,SG,South Bridge Road,1.286952813413976,103.84802161856713,"{'type': 'Point', 'coordinates': (1.286952813413976, 103.84802161856713)}"
2,Refuge,Leisure Places,Nightclub,SG,Boat Quay,1.286879425939253,103.84895985625707,"{'type': 'Point', 'coordinates': (1.286879425939253, 103.84895985625707)}"
3,Zouk,Leisure Places,Nightclub,SG,3C River Valley Rd. (The Cannery),1.2909945985318523,103.84594664397288,"{'type': 'Point', 'coordinates': (1.2909945985318523, 103.84594664397288)}"
4,Neverland Clarke Quay,Leisure Places,Nightclub,SG,"Block 3C, River Valley Road, The Cannery #02-04",1.2904178206815144,103.84549293430524,"{'type': 'Point', 'coordinates': (1.2904178206815144, 103.84549293430524)}"
5,Club illusion,Leisure Places,Nightclub,SG,Clarke Quay (Clarke Street),1.2895327212120922,103.84513066810712,"{'type': 'Point', 'coordinates': (1.2895327212120922, 103.84513066810712)}"
6,Kilo,Leisure Places,Nightclub,SG,21 Tanjong Pagar,1.2797117680136298,103.84401919555421,"{'type': 'Point', 'coordinates': (1.2797117680136298, 103.84401919555421)}"
7,Altimate,Leisure Places,Nightclub,SG,#61-00 One Raffles Place (1 Raffles Place),1.284789088880144,103.85114024080943,"{'type': 'Point', 'coordinates': (1.284789088880144, 103.85114024080943)}"
8,Capital,Leisure Places,Nightclub,SG,3C River Valley Road,1.2908973042185423,103.84580460165628,"{'type': 'Point', 'coordinates': (1.2908973042185423, 103.84580460165628)}"
9,Club NaNa,Leisure Places,Nightclub,SG,"#01-02/03, Central Mall (5 Magazine Rd)",1.2888898252141563,103.842913800301,"{'type': 'Point', 'coordinates': (1.2888898252141563, 103.842913800301)}"
10,f.Club Singapore,Leisure Places,Nightclub,SG,"3B River Valley Road, #01-08, Clarke Quay, The Foundry",1.2904753424374888,103.84515657860965,"{'type': 'Point', 'coordinates': (1.2904753424374888, 103.84515657860965)}"
11,Canvas,Leisure Places,Nightclub,SG,"#B1-01/06, The Riverwalk (20 Upp Circular Rd)",1.2892205859951487,103.84890386385922,"{'type': 'Point', 'coordinates': (1.2892205859951487, 103.84890386385922)}"
12,Marquee Singapore,Leisure Places,Nightclub,SG,#B1-67 The Shoppes At Marina Bay Sands (2 Bayfront Avenue),1.28570017252535,103.85967135429382,"{'type': 'Point', 'coordinates': (1.28570017252535, 103.85967135429382)}"
13,chateaux,Leisure Places,Nightclub,SG,Singapore,1.28675232483545,103.84884158605549,"{'type': 'Point', 'coordinates': (1.28675232483545, 103.84884158605549)}"
14,Lunar,Leisure Places,Nightclub,SG,"#01-03 The Cannery (3 River Valley Road, Clarke Quay)",1.29044786608593,103.84547486503189,"{'type': 'Point', 'coordinates': (1.29044786608593, 103.84547486503189)}"
15,Le Noir,Leisure Places,Nightclub,SG,3C River Valley Road (Clarke Quay),1.289881971213239,103.84629886349114,"{'type': 'Point', 'coordinates': (1.289881971213239, 103.84629886349114)}"
16,Bar Rouge,Leisure Places,Nightclub,SG,Swisshotel,1.2933846648336045,103.85345114124449,"{'type': 'Point', 'coordinates': (1.2933846648336045, 103.85345114124449)}"
17,Attica,Leisure Places,Nightclub,SG,"3A River Valley Rd, #01-03 (Clarke Quay)",1.2901375017462422,103.84536344745956,"{'type': 'Point', 'coordinates': (1.2901375017462422, 103.84536344745956)}"
18,the lounge,Leisure Places,Nightclub,SG,29 carpenter street,1.2883272137717088,103.84726625210256,"{'type': 'Point', 'coordinates': (1.2883272137717088, 103.84726625210256)}"
19,Skyline club & lounge,Leisure Places,Nightclub,SG,Level 45 Singapore Land Tower 50 Raffles Place,1.2841653207709947,103.85164977655562,"{'type': 'Point', 'coordinates': (1.2841653207709947, 103.85164977655562)}"
20,Lunar Yue,Leisure Places,Nightclub,SG,Clarke Quay,1.2901875813183508,103.84599948459577,"{'type': 'Point', 'coordinates': (1.2901875813183508, 103.84599948459577)}"
21,Lulu's Lounge,Leisure Places,Nightclub,SG,7 Raffles Boulevard,1.2920458422350056,103.85926525398467,"{'type': 'Point', 'coordinates': (1.2920458422350056, 103.85926525398467)}"
22,Club Filter - Vanity/Suite 26,Leisure Places,Nightclub,SG,South Beach (36 Beach Road),1.2958767359654082,103.85612767986474,"{'type': 'Point', 'coordinates': (1.2958767359654082, 103.85612767986474)}"
23,Azzucar @ Clarke Quay,Leisure Places,Nightclub,SG,Singapore,1.2902737217980538,103.84580133232872,"{'type': 'Point', 'coordinates': (1.2902737217980538, 103.84580133232872)}"
24,Fleek,Leisure Places,Nightclub,SG,Singapore,1.29023275044641,103.84563124431232,"{'type': 'Point', 'coordinates': (1.29023275044641, 103.84563124431232)}"
25,Rumours,Leisure Places,Nightclub,SG,049018,1.287843187145294,103.8439330537371,"{'type': 'Point', 'coordinates': (1.287843187145294, 103.8439330537371)}"
26,Lunar Asian Fusion Bar,Leisure Places,Nightclub,SG,Singapore,1.290389,103.845476,"{'type': 'Point', 'coordinates': (1.290389, 103.845476)}"
27,Titanium,Leisure Places,Nightclub,SG,#01-13F Esplanade Mall (8 Raffles Ave),1.2895399659093183,103.85665089117266,"{'type': 'Point', 'coordinates': (1.2895399659093183, 103.85665089117266)}"
28,Royal 2,Leisure Places,Nightclub,SG,Singapore,1.2845428077225813,103.84374093511849,"{'type': 'Point', 'coordinates': (1.2845428077225813, 103.84374093511849)}"
29,DV8 Club,Leisure Places,Nightclub,SG,"Block 3C, River Valley Road, The Cannery #02-04",1.29046633535824,103.84550946068343,"{'type': 'Point', 'coordinates': (1.29046633535824, 103.84550946068343)}"
30,COCO,Leisure Places,Nightclub,SG,"Blk 3C #02-03, The Cannery, Clarke Quay (River Valley Rd)",1.2904546706032147,103.84546757343124,"{'type': 'Point', 'coordinates': (1.2904546706032147, 103.84546757343124)}"
31,Taboo Café & Bar,Leisure Places,Nightclub,SG,65 Neil Rd.,1.278037,103.843212,"{'type': 'Point', 'coordinates': (1.278037, 103.843212)}"
32,Phuture,Leisure Places,Nightclub,SG,3C River Valley Road,1.290793,103.845862,"{'type': 'Point', 'coordinates': (1.290793, 103.845862)}"
33,VICE LIFE,Leisure Places,Nightclub,SG,"Canning Lane, 3C River Valley Road (Clarke Quay)",1.2909719317699748,103.84585222928848,"{'type': 'Point', 'coordinates': (1.2909719317699748, 103.84585222928848)}"
34,Rupee room singapore,Leisure Places,Nightclub,SG,Clarke Quay,1.2910047900184856,103.8456680696818,"{'type': 'Point', 'coordinates': (1.2910047900184856, 103.8456680696818)}"
35,SEVEN1NCH @ The Foundry Clarke Quay,Leisure Places,Nightclub,SG,3b River Valley Road 01-16,1.2911689966474416,103.84573905596163,"{'type': 'Point', 'coordinates': (1.2911689966474416, 103.84573905596163)}"
36,Club Nexus,Leisure Places,Nightclub,SG,#03-06 Oriental Plaza (291 New Bridge Road),1.2818021002213045,103.84170260015067,"{'type': 'Point', 'coordinates': (1.2818021002213045, 103.84170260015067)}"
37,Trace,Leisure Places,Nightclub,SG,5 Magazine Road #01-03,1.2887437803707837,103.84301495239866,"{'type': 'Point', 'coordinates': (1.2887437803707837, 103.84301495239866)}"
38,Secret Club,Leisure Places,Nightclub,SG,"5 Magazine Road, #01-03",1.288988,103.843082,"{'type': 'Point', 'coordinates': (1.288988, 103.843082)}"
39,Bah Bar,Leisure Places,Nightclub,SG,Central Mall (1 Magazine Road),1.2889482114943107,103.842997306564,"{'type': 'Point', 'coordinates': (1.2889482114943107, 103.842997306564)}"
40,Club Villa,Leisure Places,Nightclub,SG,Singapore,1.288828352570885,103.8428996933281,"{'type': 'Point', 'coordinates': (1.288828352570885, 103.8428996933281)}"
41,One Fantasy,Leisure Places,Nightclub,SG,Singapore,1.2891047632127706,103.8428447865724,"{'type': 'Point', 'coordinates': (1.2891047632127706, 103.8428447865724)}"
42,Social House,Leisure Places,Nightclub,SG,Singapore,1.291125891187492,103.8441821560644,"{'type': 'Point', 'coordinates': (1.291125891187492, 103.8441821560644)}"
43,Shanghai Dolly Smoking Room,Leisure Places,Nightclub,SG,3B River Valley Road #01-01 The Foundry,1.2919577607667785,103.84500872615116,"{'type': 'Point', 'coordinates': (1.2919577607667785, 103.84500872615116)}"
44,Club Versace,Leisure Places,Nightclub,SG,execelsior hotel,1.293061214796591,103.84999656060793,"{'type': 'Point', 'coordinates': (1.293061214796591, 103.84999656060793)}"
45,Rumours Exclusive,Leisure Places,Nightclub,SG,Singapore,1.291616388339767,103.84410181743723,"{'type': 'Point', 'coordinates': (1.291616388339767, 103.84410181743723)}"
46,Club Royce,Leisure Places,Nightclub,SG,32 tras street,1.2806948204512971,103.84442559741665,"{'type': 'Point', 'coordinates': (1.2806948204512971, 103.84442559741665)}"
47,EZ50,Leisure Places,Nightclub,SG,1 Neil Rd #01-01,1.280280940822248,103.84401231351896,"{'type': 'Point', 'coordinates': (1.280280940822248, 103.84401231351896)}"
48,Baliza,Leisure Places,Nightclub,SG,6 Raffles Boulevard,1.2922615087981175,103.85607825374447,"{'type': 'Point', 'coordinates': (1.2922615087981175, 103.85607825374447)}"
49,Hi-So,Leisure Places,Nightclub,SG,35 Robinson Road,1.288491370263715,103.84427008734565,"{'type': 'Point', 'coordinates': (1.288491370263715, 103.84427008734565)}"
50,Club Bubbery,Leisure Places,Nightclub,SG,Keong Saik Road,1.2816939579728277,103.84203314781189,"{'type': 'Point', 'coordinates': (1.2816939579728277, 103.84203314781189)}"
51,INFINITY LIVE @ Oriental Plaza,Leisure Places,Nightclub,SG,Singapore,1.2819888693699686,103.84173078258593,"{'type': 'Point', 'coordinates': (1.2819888693699686, 103.84173078258593)}"
52,Bar CoCoon,Leisure Places,Nightclub,SG,"The Forbidden City by IndoChine (3A Merchant’s Court, River Valley Road, #01-02)",1.2900382163230113,103.8448155291216,"{'type': 'Point', 'coordinates': (1.2900382163230113, 103.8448155291216)}"
53,Barcode Live Entertainment,Leisure Places,Nightclub,SG,Singapore,1.28178332527501,103.8416549284263,"{'type': 'Point', 'coordinates': (1.28178332527501, 103.8416549284263)}"
54,Burberry Thai Disco,Leisure Places,Nightclub,SG,Singapore,1.2816800088254463,103.84164246605447,"{'type': 'Point', 'coordinates': (1.2816800088254463, 103.84164246605447)}"
55,Society Bar,Leisure Places,Nightclub,SG,"#01-11, One Fullerton (1 Fullerton Rd)",1.2865613739908717,103.85438741850588,"{'type': 'Point', 'coordinates': (1.2865613739908717, 103.85438741850588)}"
56,QUEENS The Club,Leisure Places,Nightclub,SG,ESPLANADE,1.2896000532469438,103.85662152728102,"{'type': 'Point', 'coordinates': (1.2896000532469438, 103.85662152728102)}"
57,Chinoiserie,Leisure Places,Nightclub,SG,"#01-13F, Esplanade Mall (8 Raffles Ave)",1.2896364596763867,103.85664068312774,"{'type': 'Point', 'coordinates': (1.2896364596763867, 103.85664068312774)}"
58,Club Hexa,Leisure Places,Nightclub,SG,51 Tanjong Pagar Road,1.2786532117849752,103.84396955954773,"{'type': 'Point', 'coordinates': (1.2786532117849752, 103.84396955954773)}"
59,Refuge,Leisure Places,Nightclub,SG,Singapore,1.293439,103.854276,"{'type': 'Point', 'coordinates': (1.293439, 103.854276)}"
60,Grand Century Nite Club,Leisure Places,Nightclub,SG,Pearl's Centre (Eu Tong Sen Street),1.281674,103.840738,"{'type': 'Point', 'coordinates': (1.281674, 103.840738)}"
61,Club RCA,Leisure Places,Nightclub,SG,Singapore,1.2814667625203484,103.84061550722319,"{'type': 'Point', 'coordinates': (1.2814667625203484, 103.84061550722319)}"
62,Mango One Thai Disco,Leisure Places,Nightclub,SG,Singapore,1.291933430669653,103.85620754791458,"{'type': 'Point', 'coordinates': (1.291933430669653, 103.85620754791458)}"
63,ANTT,Leisure Places,Nightclub,SG,CHIJMES,1.2951047547853605,103.8521027159405,"{'type': 'Point', 'coordinates': (1.2951047547853605, 103.8521027159405)}"
64,Bang Bang,Leisure Places,Nightclub,SG,"7 Raffles Boulevard, Marina Square, Singapore 039595",1.2919135215293371,103.859230999814,"{'type': 'Point', 'coordinates': (1.2919135215293371, 103.859230999814)}"
65,Lush Live Band,Leisure Places,Nightclub,SG,"#01-16, Marina Mandarin Hotel (6 Raffles Blvd.)",1.292265445726939,103.85717048259586,"{'type': 'Point', 'coordinates': (1.292265445726939, 103.85717048259586)}"
66,Supper Club,Leisure Places,Nightclub,SG,Odeon Towers,1.2970589628099225,103.85422588942087,"{'type': 'Point', 'coordinates': (1.2970589628099225, 103.85422588942087)}"
67,Grand Hollywood Disco & Pub,Leisure Places,Nightclub,SG,"Merchants' Court, #03-02 (3A Clarke Quay)",1.2896196542282727,103.8451871024073,"{'type': 'Point', 'coordinates': (1.2896196542282727, 103.8451871024073)}"
68,Fash,Leisure Places,Nightclub,SG,The Butter Factory (1 Fullerton Road),1.2866250231604135,103.85403338699206,"{'type': 'Point', 'coordinates': (1.2866250231604135, 103.85403338699206)}"
69,World Music,Leisure Places,Nightclub,SG,Middle Rd,1.2969765730556875,103.85595842354161,"{'type': 'Point', 'coordinates': (1.2969765730556875, 103.85595842354161)}"
70,PONG Singapore,Leisure Places,Nightclub,SG,3B River Valley Road #01-17 The Foundry,1.291254755268967,103.84579537150012,"{'type': 'Point', 'coordinates': (1.291254755268967, 103.84579537150012)}"
71,S Club,Leisure Places,Nightclub,SG,11 Purvis St,1.2965261250962679,103.85524454375388,"{'type': 'Point', 'coordinates': (1.2965261250962679, 103.85524454375388)}"
72,The SMU Shop,Leisure Places,Gift Shop,SG,Singapore,1.2964253900583211,103.84988898903413,"{'type': 'Point', 'coordinates': (1.2964253900583211, 103.84988898903413)}"
73,Blu Jaz Cafe,Leisure Places,Jazz Club,SG,11 Bali Ln.,1.3004641573891866,103.85888869337293,"{'type': 'Point', 'coordinates': (1.3004641573891866, 103.85888869337293)}"
74,Club V3 - Live On Stage,Leisure Places,Pub,SG,South Bridge Road,1.286952813413976,103.84802161856713,"{'type': 'Point', 'coordinates': (1.286952813413976, 103.84802161856713)}"
75,Molly Malone's Irish Pub,Leisure Places,Pub,SG,56 Circular Road (Boat Quay),1.2858951708149167,103.84932032800445,"{'type': 'Point', 'coordinates': (1.2858951708149167, 103.84932032800445)}"
76,The Penny Black Public House,Leisure Places,Pub,SG,26/27 Boat Quay (Upper Circular Rd),1.2859668307394778,103.85009141345964,"{'type': 'Point', 'coordinates': (1.2859668307394778, 103.85009141345964)}"
77,London Boat Quay,Leisure Places,Pub,SG,55 Boat Quay,1.2872628099875865,103.84963366227564,"{'type': 'Point', 'coordinates': (1.2872628099875865, 103.84963366227564)}"
78,SOS,Leisure Places,Pub,SG,2 Marina Boulevard,1.279995674897267,103.85292497900159,"{'type': 'Point', 'coordinates': (1.279995674897267, 103.85292497900159)}"
79,Crazy Elephant,Leisure Places,Pub,SG,Clarke Quay (3E River Valley Rd),1.290335,103.846687,"{'type': 'Point', 'coordinates': (1.290335, 103.846687)}"
80,Harry's,Leisure Places,Pub,SG,28 Circular Rd (Boat Quay),1.2860944545028554,103.85008563750566,"{'type': 'Point', 'coordinates': (1.2860944545028554, 103.85008563750566)}"
81,RedDot BrewHouse,Leisure Places,Pub,SG,33/34 Boat Quay,1.2863002879696293,103.8498691984193,"{'type': 'Point', 'coordinates': (1.2863002879696293, 103.8498691984193)}"
82,Alchemy,Leisure Places,Pub,SG,#01-02 Central Mall (3 Magazine Road),1.2886975783470815,103.84270411880135,"{'type': 'Point', 'coordinates': (1.2886975783470815, 103.84270411880135)}"
83,Check In,Leisure Places,Pub,SG,24 Pagoda St.,1.2826916712864382,103.84549737567626,"{'type': 'Point', 'coordinates': (1.2826916712864382, 103.84549737567626)}"
84,Jab1,Leisure Places,Pub,SG,1 Circular Road,1.2882824882131556,103.84855896234512,"{'type': 'Point', 'coordinates': (1.2882824882131556, 103.84855896234512)}"
85,Lluvia Bar,Leisure Places,Pub,SG,145 Telok Ayer St,1.2808603871631696,103.84767214412238,"{'type': 'Point', 'coordinates': (1.2808603871631696, 103.84767214412238)}"
86,Oxwell & Co.,Leisure Places,Pub,SG,5 Ann Siang Road (Club Street),1.2814253198091532,103.84554788868095,"{'type': 'Point', 'coordinates': (1.2814253198091532, 103.84554788868095)}"
87,Brewerkz Restaurant & Microbrewery,Leisure Places,Brewery,SG,"#01-05/06, Riverside Point (30 Merchant Road)",1.289527,103.844098,"{'type': 'Point', 'coordinates': (1.289527, 103.844098)}"
88,Raffles Place Bistro,Leisure Places,Pub,SG,"#01-01, The Sail (2 Marina Blvd)",1.2819790318158573,103.85292933420777,"{'type': 'Point', 'coordinates': (1.2819790318158573, 103.85292933420777)}"
89,Highlander Bar & Restaurant,Leisure Places,Bar,SG,3B River Valley Road #01-11 Clarke Quay (Clarke Quay),1.290441925522098,103.84549245885033,"{'type': 'Point', 'coordinates': (1.290441925522098, 103.84549245885033)}"
90,Uncabunca,Leisure Places,Pub,SG,48 Circular Rd (Boat Quay),1.2918361,103.840576,"{'type': 'Point', 'coordinates': (1.2918361, 103.840576)}"
91,Harry's,Leisure Places,Pub,SG,#01-03 Marina Bay Link Mall (8A Marina Boulevard),1.2802035561766771,103.85449963110545,"{'type': 'Point', 'coordinates': (1.2802035561766771, 103.85449963110545)}"
92,Archipelago,Leisure Places,Pub,SG,210 South Bridge (at Mosque St),1.2832974179357084,103.84575929416835,"{'type': 'Point', 'coordinates': (1.2832974179357084, 103.84575929416835)}"
93,30a Boat Quay X-bar,Leisure Places,Pub,SG,Singapore,1.2868192434880876,103.84886753513757,"{'type': 'Point', 'coordinates': (1.2868192434880876, 103.84886753513757)}"
94,Toxic Bar,Leisure Places,Pub,SG,22a Circular Square,1.2869030991129426,103.84873072139713,"{'type': 'Point', 'coordinates': (1.2869030991129426, 103.84873072139713)}"
95,Paulaner Bräuhaus,Leisure Places,Pub,SG,"#01-01, Millenia Walk (9 Raffles Blvd)",1.2931391449273943,103.85829478901404,"{'type': 'Point', 'coordinates': (1.2931391449273943, 103.85829478901404)}"
96,Drinking Place,Leisure Places,Pub,SG,Singapore,1.286424613109909,103.8498212109266,"{'type': 'Point', 'coordinates': (1.286424613109909, 103.8498212109266)}"
97,De Luxy,Leisure Places,Pub,SG,77 south bridge road,1.2867359360686474,103.84792561868326,"{'type': 'Point', 'coordinates': (1.2867359360686474, 103.84792561868326)}"
98,Liquid @ Boat Quay,Leisure Places,Pub,SG,Singapore,1.2863164579402884,103.84920224142012,"{'type': 'Point', 'coordinates': (1.2863164579402884, 103.84920224142012)}"
99,Audition pub,Leisure Places,Pub,SG,76 Circular Road,1.286643776723571,103.84896614166247,"{'type': 'Point', 'coordinates': (1.286643776723571, 103.84896614166247)}"
100,Liquid Empire Executive,Leisure Places,Pub,SG,53B South Bridge Road (Boat Quay),1.2872824015287094,103.84825947022463,"{'type': 'Point', 'coordinates': (1.2872824015287094, 103.84825947022463)}"
101,Toxic Lab,Leisure Places,Pub,SG,51 South Bridge Rd,1.2872532101190008,103.84821649708333,"{'type': 'Point', 'coordinates': (1.2872532101190008, 103.84821649708333)}"
102,Toxic Room,Leisure Places,Pub,SG,53 South Bridge Road,1.2872639611382535,103.84820667994951,"{'type': 'Point', 'coordinates': (1.2872639611382535, 103.84820667994951)}"
103,十三妹(13 Sisters) @ Hongkong Street,Leisure Places,Pub,SG,Singapore,1.287523280786343,103.84739096200204,"{'type': 'Point', 'coordinates': (1.287523280786343, 103.84739096200204)}"
104,十三妹,Leisure Places,Pub,SG,Hong Kong Street,1.2875098370199975,103.84739222012506,"{'type': 'Point', 'coordinates': (1.2875098370199975, 103.84739222012506)}"
105,Club Samurai,Leisure Places,Pub,SG,Singapore,1.2868211971715273,103.84891518710381,"{'type': 'Point', 'coordinates': (1.2868211971715273, 103.84891518710381)}"
106,Martin Entertainment,Leisure Places,Pub,SG,27A Circular rd,1.2868734788365983,103.8488659310156,"{'type': 'Point', 'coordinates': (1.2868734788365983, 103.8488659310156)}"
107,Shebang Pub,Leisure Places,Pub,SG,82 Circular Road,1.287242162131326,103.84881490570413,"{'type': 'Point', 'coordinates': (1.287242162131326, 103.84881490570413)}"
108,Liquid 40,Leisure Places,Pub,SG,Circular Rd,1.2863806510712903,103.84884158605549,"{'type': 'Point', 'coordinates': (1.2863806510712903, 103.84884158605549)}"
109,Union Pub @ Circular Rd,Leisure Places,Pub,SG,Singapore,1.287089,103.848843,"{'type': 'Point', 'coordinates': (1.287089, 103.848843)}"
110,Shin Bar,Leisure Places,Pub,SG,Boat Quay,1.287221,103.848126,"{'type': 'Point', 'coordinates': (1.287221, 103.848126)}"
111,Bar 57,Leisure Places,Pub,SG,57B Boat Quay,1.287086899216739,103.84977575589052,"{'type': 'Point', 'coordinates': (1.287086899216739, 103.84977575589052)}"
112,McGettigan's CQ #McGettigansCQ,Leisure Places,Pub,SG,#01-01 Block C/D Clarke Quay (3A River Valley Rd),1.290547621793041,103.84480880485545,"{'type': 'Point', 'coordinates': (1.290547621793041, 103.84480880485545)}"
113,Club Strawberry,Leisure Places,Pub,SG,74 Circular Road #01-01,1.2867080580327046,103.84900971708235,"{'type': 'Point', 'coordinates': (1.2867080580327046, 103.84900971708235)}"
114,Hannibal European Grill & Pizza Bar,Leisure Places,Pub,SG,#01-04 The Pier @ Robertson Walk (80 Mohamed Sultan Rd.),1.2917292673766851,103.84109185539076,"{'type': 'Point', 'coordinates': (1.2917292673766851, 103.84109185539076)}"
115,Marquee Bistro & Bar,Leisure Places,Pub,SG,21 Church Street,1.2840818916739962,103.84827542564442,"{'type': 'Point', 'coordinates': (1.2840818916739962, 103.84827542564442)}"
116,Harry's,Leisure Places,Pub,SG,"#01-14, Chijmes (30 Victoria St)",1.2948134,103.85263,"{'type': 'Point', 'coordinates': (1.2948134, 103.85263)}"
117,Purple Turtle Ktv Pool,Leisure Places,Pub,SG,36A Boat Quay,1.2863562287188328,103.84973154247136,"{'type': 'Point', 'coordinates': (1.2863562287188328, 103.84973154247136)}"
118,Upper Circular Road,Leisure Places,Pub,SG,Upper Circular Road,1.288667,103.848319,"{'type': 'Point', 'coordinates': (1.288667, 103.848319)}"
119,Purple Bar,Leisure Places,Pub,SG,Boat Quay,1.2886174554902496,103.8493449990094,"{'type': 'Point', 'coordinates': (1.2886174554902496, 103.8493449990094)}"
120,Aurora Boat Quay,Leisure Places,Pub,SG,Singapore,1.288638,103.849351,"{'type': 'Point', 'coordinates': (1.288638, 103.849351)}"
121,The Chamber,Leisure Places,Pub,SG,Far East Square,1.2839579857890173,103.84817286299169,"{'type': 'Point', 'coordinates': (1.2839579857890173, 103.84817286299169)}"
122,Skinny's Lounge,Leisure Places,Dive Bar,SG,82 Boat Quay,1.288604829804924,103.8493614428837,"{'type': 'Point', 'coordinates': (1.288604829804924, 103.8493614428837)}"
123,Grand Hollywood Disco & Pub,Leisure Places,Pub,SG,"Merchants' Court, #03-02 (3A Clarke Quay)",1.2896196542282727,103.8451871024073,"{'type': 'Point', 'coordinates': (1.2896196542282727, 103.8451871024073)}"
124,Post Bar,Leisure Places,Hotel Bar,SG,"The Fullerton Hotel, Lobby (1 Fullerton Square)",1.2859992947823395,103.85317841914382,"{'type': 'Point', 'coordinates': (1.2859992947823395, 103.85317841914382)}"
125,China One VIP Area,Leisure Places,Pub,SG,3E River Valley Rd #02-01/02/03 (Clarke Quay),1.2898086601902152,103.84655997400196,"{'type': 'Point', 'coordinates': (1.2898086601902152, 103.84655997400196)}"
126,Dixies Pub,Leisure Places,Pub,SG,Singapore,1.2834452568492527,103.84543210529793,"{'type': 'Point', 'coordinates': (1.2834452568492527, 103.84543210529793)}"
127,TalayThai,Leisure Places,Pub,SG,Singapore,1.2901014,103.8466329,"{'type': 'Point', 'coordinates': (1.2901014, 103.8466329)}"
128,O+ Victoria,Leisure Places,Pub,SG,32 Mosque St,1.2834948266632253,103.84528546711016,"{'type': 'Point', 'coordinates': (1.2834948266632253, 103.84528546711016)}"
129,Forest2,Leisure Places,Pub,SG,"#01-05, Shenton House (3 Shenton Way)",1.2784099735402221,103.84965367469607,"{'type': 'Point', 'coordinates': (1.2784099735402221, 103.84965367469607)}"
130,Harry's @ Market St,Leisure Places,Pub,SG,Market St,1.2817700712809472,103.84974178596583,"{'type': 'Point', 'coordinates': (1.2817700712809472, 103.84974178596583)}"
131,The Blarney Irish Pub,Leisure Places,Pub,SG,The Sail @ Marina Bay (6 Marina Blvd),1.2802162296852295,103.85306521714362,"{'type': 'Point', 'coordinates': (1.2802162296852295, 103.85306521714362)}"
132,Roku,Leisure Places,Pub,SG,146 Market Street,1.2816230617794375,103.85016641063467,"{'type': 'Point', 'coordinates': (1.2816230617794375, 103.85016641063467)}"
133,Molly Roffey's Irish Pub,Leisure Places,Pub,SG,#01-01/03 Int'l Factors Building (141 Market St.),1.2819100267581625,103.84988970963227,"{'type': 'Point', 'coordinates': (1.2819100267581625, 103.84988970963227)}"
134,The Good Beer Company,Leisure Places,Beer Bar,SG,#02-58 Chinatown Complex Food Centre (335 Smith St),1.282490736602177,103.84384751339886,"{'type': 'Point', 'coordinates': (1.282490736602177, 103.84384751339886)}"
135,Boat Quay,Leisure Places,Canal,SG,Boat Quay,1.2866377657473904,103.8495492898863,"{'type': 'Point', 'coordinates': (1.2866377657473904, 103.8495492898863)}"
136,Boomarang Bistro & Bar,Leisure Places,Australian Restaurant,SG,52 Circular Road,1.2856579384319702,103.84950445769702,"{'type': 'Point', 'coordinates': (1.2856579384319702, 103.84950445769702)}"
137,99 Degrees Pub And Ktv,Leisure Places,Pub,SG,Singapore,1.28856466,103.84357,"{'type': 'Point', 'coordinates': (1.28856466, 103.84357)}"
138,99 Degree Pub,Leisure Places,Pub,SG,Central Mall,1.2886277076849717,103.84358204668783,"{'type': 'Point', 'coordinates': (1.2886277076849717, 103.84358204668783)}"
139,Illuzion,Leisure Places,Pub,SG,45 neil road,1.279656,103.842852,"{'type': 'Point', 'coordinates': (1.279656, 103.842852)}"
140,Le Noir,Leisure Places,Lounge,SG,3C River Valley Road (Clarke Quay),1.289881971213239,103.84629886349114,"{'type': 'Point', 'coordinates': (1.289881971213239, 103.84629886349114)}"
141,Harry's,Leisure Places,Pub,SG,"#01-05/07, Esplanade Mall (8 Raffles Ave)",1.28941442202027,103.85613001186913,"{'type': 'Point', 'coordinates': (1.28941442202027, 103.85613001186913)}"
142,Orgo Bar & Lab,Leisure Places,Pub,SG,"#04-01, Roof Terrace, Esplanade Theatres on the Bay (1 Esplanade Dr)",1.289606492245779,103.85612470507638,"{'type': 'Point', 'coordinates': (1.289606492245779, 103.85612470507638)}"
143,New Harbour Cafe & Bar,Leisure Places,Pub,SG,114 Tanjong Pagar Road,1.2778405205280887,103.84364948182709,"{'type': 'Point', 'coordinates': (1.2778405205280887, 103.84364948182709)}"
144,Back Bencher Cafe & Bar,Leisure Places,Pub,SG,Singapore,1.280998125583318,103.84576170190999,"{'type': 'Point', 'coordinates': (1.280998125583318, 103.84576170190999)}"
145,CU29,Leisure Places,Pub,SG,29 Ann Siang Hill,1.2807867336932157,103.84585228574122,"{'type': 'Point', 'coordinates': (1.2807867336932157, 103.84585228574122)}"
146,My Awesome Cafe 真棒堂 (My Awesome Café),Leisure Places,Café,SG,202 Telok Ayer Street,1.28009,103.847253,"{'type': 'Point', 'coordinates': (1.28009, 103.847253)}"
147,Singapore Sling Boutique Clarke Quay,Leisure Places,Pub,SG,Singapore,1.2905673155300954,103.8448921582914,"{'type': 'Point', 'coordinates': (1.2905673155300954, 103.8448921582914)}"
148,Club Axchange,Leisure Places,Pub,SG,16 Tanjong Pagar Road,1.279924747114008,103.84406892767717,"{'type': 'Point', 'coordinates': (1.279924747114008, 103.84406892767717)}"
149,kanpai @ Robertson Walk,Leisure Places,Pub,SG,Robertson Walk,1.2917468417279545,103.84115950665601,"{'type': 'Point', 'coordinates': (1.2917468417279545, 103.84115950665601)}"
150,Urban Fairways,Leisure Places,Sports Bar,SG,"Capital Tower, 168 Robinson Road",1.277309118227904,103.84773185611138,"{'type': 'Point', 'coordinates': (1.277309118227904, 103.84773185611138)}"
151,Glamor @ Tanjong Pagar,Leisure Places,Pub,SG,52 Tanjong Pagar Road,1.279189,103.843864,"{'type': 'Point', 'coordinates': (1.279189, 103.843864)}"
152,Dorothy's Bar,Leisure Places,Gay Bar,SG,13A Trengganu St,1.2828981278053893,103.84418508879271,"{'type': 'Point', 'coordinates': (1.2828981278053893, 103.84418508879271)}"
153,Rain D Boutique Bar,Leisure Places,Pub,SG,81 Clemenceau Avenue (UE Square Shopping Mall),1.2918811526399516,103.84261061020128,"{'type': 'Point', 'coordinates': (1.2918811526399516, 103.84261061020128)}"
154,American Taproom,Leisure Places,Beer Bar,SG,"261 Waterloo Street, #01-23",1.298166106887847,103.85223035160051,"{'type': 'Point', 'coordinates': (1.298166106887847, 103.85223035160051)}"
155,The Tavern Pub & Restaurant,Leisure Places,Pub,SG,229 River Valley Road,1.2939069347073766,103.84232708140948,"{'type': 'Point', 'coordinates': (1.2939069347073766, 103.84232708140948)}"
156,Bonkers 56,Leisure Places,Pub,SG,56 tanjong pagar road,1.2791147096943922,103.84395003797218,"{'type': 'Point', 'coordinates': (1.2791147096943922, 103.84395003797218)}"
157,Molly Roffey's Irish Pub,Leisure Places,Pub,SG,#01-13E Esplanade Mall (8 Raffles Ave.),1.2891117092544637,103.85657798654665,"{'type': 'Point', 'coordinates': (1.2891117092544637, 103.85657798654665)}"
158,Guess Where 2,Leisure Places,Pub,SG,#01-43 Keong Saik Rd,1.280569656412748,103.84180437975954,"{'type': 'Point', 'coordinates': (1.280569656412748, 103.84180437975954)}"
159,Tantric Bar,Leisure Places,Gay Bar,SG,78 Neil Rd,1.279814,103.842389,"{'type': 'Point', 'coordinates': (1.279814, 103.842389)}"
160,Flying Hog Cafe and Bar,Leisure Places,Pub,SG,32 Duxton Road (at Duxton Hill),1.2791126675114435,103.84317426592143,"{'type': 'Point', 'coordinates': (1.2791126675114435, 103.84317426592143)}"
161,ebar,Leisure Places,Pub,SG,57 Neil Rd,1.2796115357795486,103.84240748888107,"{'type': 'Point', 'coordinates': (1.2796115357795486, 103.84240748888107)}"
162,Chatroom @ Keong Siak Rd,Leisure Places,Pub,SG,Singapore,1.279734,103.841573,"{'type': 'Point', 'coordinates': (1.279734, 103.841573)}"
163,In Barz,Leisure Places,Pub,SG,82 Neil Road,1.2796078895377394,103.84232522243616,"{'type': 'Point', 'coordinates': (1.2796078895377394, 103.84232522243616)}"
164,D's Bar,Leisure Places,Pub,SG,Singapore,1.2804043117125683,103.84156786252143,"{'type': 'Point', 'coordinates': (1.2804043117125683, 103.84156786252143)}"
165,5footway.inn Project Boat Quay,Leisure Places,Hostel,SG,"76, Boat Quay",1.2881736678118256,103.84933597972048,"{'type': 'Point', 'coordinates': (1.2881736678118256, 103.84933597972048)}"
166,Beds@mohamad Sultan,Leisure Places,Pub,SG,Singapore,1.293675242605203,103.84198440995897,"{'type': 'Point', 'coordinates': (1.293675242605203, 103.84198440995897)}"
167,Crystabelle,Leisure Places,Pub,SG,3 Teo Hong Road,1.28048861641134,103.84054776068622,"{'type': 'Point', 'coordinates': (1.28048861641134, 103.84054776068622)}"
168,Duxton Blue,Leisure Places,Pub,SG,35 Duxton Rd,1.2779235318305207,103.84311215157445,"{'type': 'Point', 'coordinates': (1.2779235318305207, 103.84311215157445)}"
169,Barossa,Leisure Places,Bar,SG,#01-01 Esplanade Mall (8 Raffles Avenue),1.2893531427644938,103.85604970208067,"{'type': 'Point', 'coordinates': (1.2893531427644938, 103.85604970208067)}"
170,Paulaner Singapore Clarke Quay,Leisure Places,German Restaurant,SG,#01-12 Clarke Quay (3B River Valley Rd.),1.2907565129749183,103.8456179558429,"{'type': 'Point', 'coordinates': (1.2907565129749183, 103.8456179558429)}"
171,Customs House,Leisure Places,Gourmet Shop,SG,70 Collyer Quay (Marina Bay),1.2824132,103.85366,"{'type': 'Point', 'coordinates': (1.2824132, 103.85366)}"
172,Pan Pacific Singapore,Leisure Places,Hotel,SG,7 Raffles Blvd. (Marina Square),1.2919535380366518,103.85925680588429,"{'type': 'Point', 'coordinates': (1.2919535380366518, 103.85925680588429)}"
173,Azzucar @ Clarke Quay,Leisure Places,Nightclub,SG,Singapore,1.2902737217980538,103.84580133232872,"{'type': 'Point', 'coordinates': (1.2902737217980538, 103.84580133232872)}"
174,Molly Malone's Irish Pub,Leisure Places,Bar,SG,56 Circular Road (Boat Quay),1.2858951708149167,103.84932032800445,"{'type': 'Point', 'coordinates': (1.2858951708149167, 103.84932032800445)}"
175,The Penny Black Public House,Leisure Places,Bar,SG,26/27 Boat Quay (Upper Circular Rd),1.2859668307394778,103.85009141345964,"{'type': 'Point', 'coordinates': (1.2859668307394778, 103.85009141345964)}"
176,McGettigan's CQ #McGettigansCQ,Leisure Places,Pub,SG,#01-01 Block C/D Clarke Quay (3A River Valley Rd),1.290547621793041,103.84480880485545,"{'type': 'Point', 'coordinates': (1.290547621793041, 103.84480880485545)}"
177,Sticky fingers,Leisure Places,Irish Pub,SG,The riverside plaza (11 Keng Cheow St),1.2888747302302075,103.84388749720257,"{'type': 'Point', 'coordinates': (1.2888747302302075, 103.84388749720257)}"
178,Muddy Murphy's Irish Pub,Leisure Places,Irish Pub,SG,"#01-02 to 05, Claymore Connect (442 Orchard Road)",1.3073454206232478,103.82884740829468,"{'type': 'Point', 'coordinates': (1.3073454206232478, 103.82884740829468)}"
179,The Drunken Poet,Leisure Places,Irish Pub,SG,Orchard Towers (Orchard Road),1.3065485877957104,103.82898767108125,"{'type': 'Point', 'coordinates': (1.3065485877957104, 103.82898767108125)}"
