,Name,Classification,Type,Country,Adress,Latitude,Longitude,location
0,JamiQ,Technological Startups,Tech Startup,SG,67 South Bridge Road,1.2870264919148537,103.84802226525555,"{'type': 'Point', 'coordinates': (1.2870264919148537, 103.84802226525555)}"
1,SGInnovate,Technological Startups,Tech Startup,SG,32 Carpenter Street,1.2882132447601808,103.84757187775239,"{'type': 'Point', 'coordinates': (1.2882132447601808, 103.84757187775239)}"
2,Amazon Web Services,Technological Startups,Tech Startup,SG,23 Church St. (23 Church Street),1.2839280132980078,103.84899616241455,"{'type': 'Point', 'coordinates': (1.2839280132980078, 103.84899616241455)}"
3,Criteo Singapore,Technological Startups,Tech Startup,SG,138 Market Street #34-01 CapitaGreen,1.2837384304236261,103.84960673796324,"{'type': 'Point', 'coordinates': (1.2837384304236261, 103.84960673796324)}"
4,ThoughtBuzz,Technological Startups,Tech Startup,SG,"Level 9, Malacca Centre (20, Malacca Street)",1.2838429553977835,103.85035890758823,"{'type': 'Point', 'coordinates': (1.2838429553977835, 103.85035890758823)}"
5,MediaMath,Technological Startups,Tech Startup,SG,18 Cross Street #10-01/02,1.2834818897765183,103.84677511196396,"{'type': 'Point', 'coordinates': (1.2834818897765183, 103.84677511196396)}"
6,migme,Technological Startups,Tech Startup,SG,"111 North Bridge Road, Peninsula Plaza, #26-01/02",1.2889758043503323,103.84645661086319,"{'type': 'Point', 'coordinates': (1.2889758043503323, 103.84645661086319)}"
7,iris Digital Singapore,Technological Startups,Tech Startup,SG,"#02-02, Far East Square (19 China St)",1.2836237138095203,103.84791662729316,"{'type': 'Point', 'coordinates': (1.2836237138095203, 103.84791662729316)}"
8,roomorama,Technological Startups,Tech Startup,SG,115 Amoy St,1.2823075936097559,103.84758796699276,"{'type': 'Point', 'coordinates': (1.2823075936097559, 103.84758796699276)}"
9,MyCube,Technological Startups,Tech Startup,SG,3D River Valley Road,1.2896017583521124,103.8453870657327,"{'type': 'Point', 'coordinates': (1.2896017583521124, 103.8453870657327)}"
10,Flok,Technological Startups,Tech Startup,SG,111A Telok Ayer Street (Cross Street),1.2816050046703917,103.84814258257622,"{'type': 'Point', 'coordinates': (1.2816050046703917, 103.84814258257622)}"
11,Sparkline,Technological Startups,Tech Startup,SG,29/31 Tanjong Pagar Road #04-01,1.2821523138303592,103.84597342779803,"{'type': 'Point', 'coordinates': (1.2821523138303592, 103.84597342779803)}"
12,TradeGecko,Technological Startups,Tech Startup,SG,121 Telok Ayer Street,1.2812819497779782,103.84804330055773,"{'type': 'Point', 'coordinates': (1.2812819497779782, 103.84804330055773)}"
13,Pivotal,Technological Startups,Tech Startup,SG,"109 North Bridge Road, Leve 6, WeWork (High Street)",1.291201,103.849976,"{'type': 'Point', 'coordinates': (1.291201, 103.849976)}"
14,Viki Crimson House,Technological Startups,Tech Startup,SG,Singapore,1.2843851367089347,103.85367606298725,"{'type': 'Point', 'coordinates': (1.2843851367089347, 103.85367606298725)}"
15,TubeMogul Singapore,Technological Startups,Tech Startup,SG,75 High Street,1.282581367727275,103.84465334233208,"{'type': 'Point', 'coordinates': (1.282581367727275, 103.84465334233208)}"
16,Grab R&D,Technological Startups,Tech Startup,SG,"#01-01 Cecil Court, 138 Cecil Street (Boon Tat St)",1.2807546416399715,103.84891963696381,"{'type': 'Point', 'coordinates': (1.2807546416399715, 103.84891963696381)}"
17,Home Studio 81 Amoy Street,Technological Startups,Tech Startup,SG,Singapore,1.28056,103.846864,"{'type': 'Point', 'coordinates': (1.28056, 103.846864)}"
18,Airbnb Singapore,Technological Startups,Tech Startup,SG,158 Cecil St,1.2801674005323354,103.84796403842383,"{'type': 'Point', 'coordinates': (1.2801674005323354, 103.84796403842383)}"
19,Omnifluence,Technological Startups,Tech Startup,SG,179B Telok Ayer Street,1.2798758746012273,103.8473117351532,"{'type': 'Point', 'coordinates': (1.2798758746012273, 103.8473117351532)}"
20,Asia Square FCC,Technological Startups,Tech Startup,SG,1 Shenton Lane,1.2801248523883835,103.85164411482286,"{'type': 'Point', 'coordinates': (1.2801248523883835, 103.85164411482286)}"
21,Visa Innovation Centre SG,Technological Startups,Tech Startup,SG,71 Robinson Road,1.2783600994649171,103.8489290775846,"{'type': 'Point', 'coordinates': (1.2783600994649171, 103.8489290775846)}"
22,Spotify Singapore,Technological Startups,Tech Startup,SG,21 Tanjong Pagar Road,1.279705,103.843972,"{'type': 'Point', 'coordinates': (1.279705, 103.843972)}"
23,Groupon H.Q. Singapore,Technological Startups,Tech Startup,SG,UE Square,1.2921385269105374,103.84267419576643,"{'type': 'Point', 'coordinates': (1.2921385269105374, 103.84267419576643)}"
24,Vodafone Customer Experience Center,Technological Startups,Tech Startup,SG,Asia Square Tower 2 (12 Marina View),1.27823601145595,103.85109492786576,"{'type': 'Point', 'coordinates': (1.27823601145595, 103.85109492786576)}"
25,River Valley Building,Technological Startups,Office,SG,179 River Valley Rd,1.2920037002104363,103.84369370691424,"{'type': 'Point', 'coordinates': (1.2920037002104363, 103.84369370691424)}"
26,Traveloka,Technological Startups,Tech Startup,SG,068896,1.277718,103.8483,"{'type': 'Point', 'coordinates': (1.277718, 103.8483)}"
27,Burpple Headquarters,Technological Startups,Tech Startup,SG,34A Duxton Road,1.27903,103.843439,"{'type': 'Point', 'coordinates': (1.27903, 103.843439)}"
28,Palantir Singapore,Technological Startups,Tech Startup,SG,Marina Bay Financial Center Floor 17,1.279297,103.85443,"{'type': 'Point', 'coordinates': (1.279297, 103.85443)}"
29,AppNexus Singapore,Technological Startups,Tech Startup,SG,12 Marina Boulevard (#17-01 MBFC Tower 3),1.2792717474042326,103.85465618995295,"{'type': 'Point', 'coordinates': (1.2792717474042326, 103.85465618995295)}"
30,Grab (Guoco Tower),Technological Startups,Tech Startup,SG,"1 Wallich Street, #35-01",1.2770764898029199,103.84677338891215,"{'type': 'Point', 'coordinates': (1.2770764898029199, 103.84677338891215)}"
31,Unity Singapore Hq,Technological Startups,Tech Startup,SG,guoco tower,1.2770231,103.845856,"{'type': 'Point', 'coordinates': (1.2770231, 103.845856)}"
32,Pivotal Labs Singapore,Technological Startups,Tech Startup,SG,64B Tras St,1.2777016951833406,103.84406078078425,"{'type': 'Point', 'coordinates': (1.2777016951833406, 103.84406078078425)}"
33,YFind Technologies,Technological Startups,Tech Startup,SG,"57B Duxton Road, Singapore 089521",1.2780645974977896,103.84314306818784,"{'type': 'Point', 'coordinates': (1.2780645974977896, 103.84314306818784)}"
34,pepperconn,Technological Startups,Tech Startup,SG,"8 Burn Road, #06-13 (Burn & Playfair Road)",1.29414,103.842529,"{'type': 'Point', 'coordinates': (1.29414, 103.842529)}"
35,Grab (Marina One),Technological Startups,Tech Startup,SG,"#23-07/12, Marina One West Tower (9 Straits View)",1.276867,103.852362,"{'type': 'Point', 'coordinates': (1.276867, 103.852362)}"
36,Foursquare Asia,Technological Startups,Tech Startup,SG,39A Duxton Road,1.2787325314969156,103.8434731966384,"{'type': 'Point', 'coordinates': (1.2787325314969156, 103.8434731966384)}"
37,Zendesk,Technological Startups,Tech Startup,SG,Marina One (Commonwealth Avenue),1.276818,103.852405,"{'type': 'Point', 'coordinates': (1.276818, 103.852405)}"
38,IncuVest Incubator@Mohd Sultan,Technological Startups,Tech Startup,SG,57 Mohd Sultan Road,1.2919484191598218,103.8399871073747,"{'type': 'Point', 'coordinates': (1.2919484191598218, 103.8399871073747)}"
39,Stripe,Technological Startups,Tech Startup,SG,89 Neil Road (Gopeng st),1.27857,103.841669,"{'type': 'Point', 'coordinates': (1.27857, 103.841669)}"
40,Lazada Singapore,Technological Startups,Tech Startup,SG,"8 Shenton Way, #43-01",1.2759280105616952,103.84721671200596,"{'type': 'Point', 'coordinates': (1.2759280105616952, 103.84721671200596)}"
41,Viki Singapore,Technological Startups,Tech Startup,SG,Sultan Link - 59 Mohamed Sultan Road,1.2919222049064945,103.8398564601494,"{'type': 'Point', 'coordinates': (1.2919222049064945, 103.8398564601494)}"
42,Go-Jek Singapore,Technological Startups,Tech Startup,SG,8 Shenton Way,1.2758659604874036,103.8472181274008,"{'type': 'Point', 'coordinates': (1.2758659604874036, 103.8472181274008)}"
43,Neo,Technological Startups,Tech Startup,SG,53A Craig Rd.,1.2775807857452375,103.84231389974804,"{'type': 'Point', 'coordinates': (1.2775807857452375, 103.84231389974804)}"
44,2359 Media Pte Ltd,Technological Startups,Tech Startup,SG,#24-01 Hub Synergy Point (70 Anson Rd),1.277355094486349,103.84353301099164,"{'type': 'Point', 'coordinates': (1.277355094486349, 103.84353301099164)}"
45,App Annie Singapore,Technological Startups,Tech Startup,SG,7 Cantonment Road,1.2792920832846788,103.83984996883703,"{'type': 'Point', 'coordinates': (1.2792920832846788, 103.83984996883703)}"
46,HootSuite Media Singapore,Technological Startups,Tech Startup,SG,1A Keong Saik Rd,1.2787647151498298,103.84148188460017,"{'type': 'Point', 'coordinates': (1.2787647151498298, 103.84148188460017)}"
47,Pure Storage,Technological Startups,Tech Startup,SG,148 (Neil Road),1.2780445964147373,103.84067121408324,"{'type': 'Point', 'coordinates': (1.2780445964147373, 103.84067121408324)}"
48,Kaptr,Technological Startups,Tech Startup,SG,"298 River Valley Road, Level 2",1.295493,103.841561,"{'type': 'Point', 'coordinates': (1.295493, 103.841561)}"
49,Cubevox,Technological Startups,Tech Startup,SG,"10 Anson Road,#26-04,International Plaza (10 Anson Road)",1.2753676666379488,103.84607791900633,"{'type': 'Point', 'coordinates': (1.2753676666379488, 103.84607791900633)}"
